autoID,Car Park Name,Long,Lat
3,Q Park - Royal Liverpool Car Park,-2.964698969,53.41081157
4,Bridge of Don Park & Ride,-2.087762867,57.18608017
5,Thistle Parking Semple Street,-3.206597,55.945146
6,Thistle Parking Edinburgh Quay,-3.207514286,55.94333618
7,Q Park - QEMC - Womens Pay & Display,-1.936279223,52.4532689
10,"North & South Car Parks, Castle Quay Shopping Centre",-1.334957876,52.06334465
11,Freeman Hospital MSCP,-1.593396574,55.00278024
15,Britford Park & Ride,-1.777814981,51.04943981
17,Kingdom Shopping Centre Car Park,-3.17062099,56.19656046
18,Kingdom Shopping Centre MSCP,-3.17062099,56.19656046
20,St Andrews Multi Storey Car Park,1.294726912,52.63066714
27,Car Haven Car Park,-0.24119545,52.57085849
28,Bluewater - Green Deck Car Park,0.273166895,51.44026594
29,Bluewater - Red Deck Car Park,0.270001888,51.44090795
30,Bluewater - Outer Green Surface Car Park,0.2823,51.4504
31,Bluewater - Orange Car Park,0.275945663,51.43892172
32,Bluewater - Blue Car Park,0.273349285,51.4371026
33,Bluewater - Aqua Car Park,0.266225338,51.43979112
34,Bluewater - Outer Red Surface Car Park,0.2823,51.4504
35,Glasgow Royal Infirmary Car Park,-4.23393892,55.86541906
37,Radisson Blu Hotel - London Stansted Airport,0.264650934,51.89226425
38,NCP Glasgow Airport Flightpath Car Park,-4.423615,55.865611
39,NCP Glasgow Airport MSCP 1,-4.432082705,55.86465455
40,NCP Glasgow Airport MSCP 3,-4.432082705,55.86465455
41,NCP Glasshouse MSCP,-4.248578151,55.8590408
42,NCP Mitchell Street MSCP,-4.256205307,55.86022234
43,NCP Oswald Street MSCP,-4.260356335,55.85795315
45,NCP George Street MSCP,-4.244605545,55.86136923
50,Newcastle Central Railway Station Short Stay Car Park,-1.616894348,54.96829468
51,Deepdale Shopping Park,-2.680426,53.772625
52,Royal Preston Hospital Car Park B,-2.704499193,53.79086295
53,Royal Preston Hospital Car Park C,-2.704499193,53.79086295
54,Q Park - St Enoch Car Park,-4.254025784,55.8562538
55,Moore Lane Car Park,-1.100084,53.948714
56,Merchant Gate MSCP,-1.505194945,53.68189429
62,Crossgates Shopping Centre,-1.450810796,53.80628071
63,Stonehouse Road Car Park,0.960841682,52.04459426
64,Girling Street Car Park,0.731669299,52.04062784
65,High Street Car Park,0.953640358,52.04443337
73,The Royal Infirmary of Edinburgh,-3.135092813,55.92192823
75,Ingliston Park & Ride,-3.357739449,55.93784422
76,Petters Way Car Park,-2.634615898,50.93947364
83,Meadway East Car Park,-2.157919902,53.40459006
84,Ridings Shopping Centre,-1.496065797,53.68184724
87,Zone D (Grantham Station),-0.643412773,52.90694384
88,Jewson Zone E Grantham,-0.643412773,52.90694384
89,Road Car Park Zone C,-0.643412773,52.90694384
90,Main Car Park Zone A,-0.643412773,52.90694384
91,Zone B (Grantham Station),-0.643412773,52.90694384
94,NCP Kingston St James Road Car Park,-0.304256784,51.40763144
95,NCP Fairfield Car Park,-0.301283869,51.40947684
96,Home Office Car Park,-0.130423006,51.49762148
97,"NCP Lanark Road Car Park, London",-0.181409887,51.52803612
98,NCP Crawford Street Car Park London,-0.162438745,51.51940424
100,Horseferry Road Car Park,-0.132950743,51.49570134
104,Grimston Bar Park & Ride,-1.016343498,53.95640638
105,Monks Cross Park & Ride,-1.052265393,53.98258132
106,Retail Park 3,-3.514990513,55.88375675
107,Hare Lane South Car Park - Gloucester,-2.244295169,51.86692403
108,Hare Lane North Car Park - Gloucester,-2.243990959,51.86706852
109,Station Road Car Park - Gloucester,-2.239555245,51.86319347
110,Hampden Way Car Park - Gloucester,-2.243052344,51.8626828
112,St Michaels Square Car Park - Gloucester,-2.244600919,51.86170855
115,Quayside Multi Storey Car Park,-1.611277876,54.9675849
116,Morden Street Car Park,-1.616361,54.976278
117,Close/Swing Bridge Car Park,-1.611277876,54.9675849
118,Argyle Street Car Park,-1.603856406,54.97413006
120,Oxford Street Multi Storey Car Park,-1.610031784,54.97850844
121,Saville Place Car Park,-1.609464778,54.97736534
129,CitiPark The Clarence Dock MSCP,-1.523783908,53.78146152
132,Copeland Road Car Park,-0.065322203,51.46854376
133,Pescod Square Shopping Centre,-0.021307354,52.97931577
138,Macclesfield Station Car Park No 2,-2.122156303,53.25935417
139,Neath Civic Centre Car Park,-3.785439215,51.59687977
140,Holbeach Road Multi Storey Car Park,-0.016883062,51.4383904
166,Executive Car Park - Darlington,-1.54648446,54.52138984
169,Queen Anne Terrace MSCP,0.130316205,52.20045857
172,NCP Chorley Street Car Park,-2.438659094,53.58133434
173,NCP All Saints Street East Car Park,-2.431872969,53.58388481
177,T1/T3 Long Stay Car Park,-2.270837621,53.36187933
178,T3 MSCP,-2.270837621,53.36187933
179,T2 MSCP,-2.270837621,53.36187933
180,T2 Long Stay & West Car Park,-2.270837621,53.36187933
181,T1 MSCP,-2.270837621,53.36187933
182,T1 Arrivals Car Park,-2.270837621,53.36187933
183,Premier Zone G,-2.270837621,53.36187933
194,Thimble Row Car Park,-3.427861,56.395276
195,Vinci Park Ninewells Hospital Car Park 7 - Disabled Parking,-2.991368915,56.46165442
196,Redhill Library Car Park,0.064373016,51.42009836
197,High Street Car Park - Chiselhurst,0.066840649,51.41983742
198,Hornbrook House Car Park,0.068793297,51.41651877
199,02 Centre LS Finchley Road,-0.181416,51.547944
200,Camelot Way Car Park,-1.287237955,53.59357928
201,George Street Car Park,-0.760935313,51.63317938
202,Totteridge Road Car Park,-0.745644333,51.62440273
203,Richardson Street Car Park,-0.76313904,51.63237536
206,Baker Street Car Park,-0.761229365,51.63246313
207,Railway Place Car Park,-0.742400209,51.62782993
208,Duke Street Car Park,-0.742474493,51.62932339
209,Cumberland Infirmary-The Pillars,-2.955295858,54.89574063
210,Cumberland Infirmary - Infirmary Street,-2.955295858,54.89574063
211,Cumberland Infirmary Zone F,-2.955295858,54.89574063
212,Cumberland Infirmary Zone E,-2.955295858,54.89574063
213,Cumberland Infirmary Zone C,-2.955295858,54.89574063
214,Car Park 13,0.465859,51.563715
215,Car Park 1 Great Oaks Multi Storey Car Park,0.457283,51.571647
216,Thickthorn Park & Ride,1.219149158,52.60408404
222,NCP Queen Street Car Park - York,-1.091913,53.955848
223,NCP Bradford Southgate MSCP,-1.760495844,53.79596481
224,NCP Balmoral MSCP,-0.40066511,54.28211925
225,NCP Lincoln - St Marys Street Car Park,-0.540836,53.226833
226,NCP Lincoln - St Rumbold Street Car Park,-0.534656,53.229078
227,NCP Lincoln- Grantham Street Car Park,-0.538799,53.23134
228,NCP Lincoln - Lincoln Central,-0.537671,53.229709
229,NCP Lincoln - Steep Hill Car Park,-0.54067,53.23147
231,NCP Lincoln Brayford Street Car Park,-0.542884,53.227408
232,NCP Lincoln - High Street MSCP,-0.54167,53.226605
239,Selby Park Car Park,-1.067081552,53.78266992
240,Market Cross Car Park,-1.070504647,53.78298414
241,Church Hill Car Park,-1.066149344,53.78500867
242,Micklegate Car Park,-1.068054274,53.78534708
243,Back Micklegate Car Park,-1.068244586,53.78566315
245,Audus Street Car Park,-1.070992904,53.7835542
246,South Parade Car Park,-1.071721299,53.78355984
247,"Britannia Car Park, Tadcaster",-1.259194964,53.8858663
248,"Church View Car Park, Sherburn",-1.253115198,53.79586465
249,Portholme Cresent Car Park,-1.067107842,53.78080051
250,Westgate 3 Car Park,-0.538905288,53.23590899
251,St Pauls Lane Car Park,-0.539532218,53.2355391
252,Castle Hill Car Park,-0.539145283,53.23458144
254,Chaplin Street Car Park,-0.676158184,53.32611408
255,Langworthgate Car Park,-0.520039137,53.2407285
256,Rosemary Lane Car Park,-0.534098664,53.23011446
257,The Lawn Car Park,-0.543869868,53.23532248
258,Beaumont Fee Car Park,-0.544838705,53.23105516
259,Motherby Lane Car Park,-0.541406475,53.23153461
260,Broadgate Multi Storey Car Park,-0.533750752,53.22889655
261,Thornbridge Car Park,-0.535686225,53.22881247
262,Lucy Tower Multi Storey Car Park,-0.544665879,53.22952478
263,Westgate 1 Car Park,-0.538905288,53.23590899
272,River Street MSCP,-0.470598936,52.13511466
273,Redcar & Cleveland House Car Park,-1.074711771,54.61310398
274,Seafield House Car Park,-1.07272517,54.61671066
276,Churchill Square Shopping Centre,-0.147103071,50.82197364
277,NCP Russell Road Multi Storey Car Park,-0.145871908,50.82146102
298,High Street Car Park - Walton-on-the-Naze,1.269148,51.848451
299,Holiday Inn Express - London Stansted Airport,0.246829006,51.87647312
300,NCP Tower Ramparts Car Park,1.140381154,52.06602496
301,NCP Foundation Street Car Park,1.15667044,52.05407693
302,South East Essex College Car Park,0.710091042,51.53969949
303,"NCP London Street Car Park, Southport",-3.003543,53.647343
304,St Martins Approach Car Park,-0.426635695,51.57869271
305,Pembroke Gardens Car Park,-0.419721433,51.57289867
306,Community Close Car Park,-0.443520145,51.56353206
307,North View Car Park,-0.397417473,51.57683156
308,Brandville Road Car Park,-0.470535126,51.50828783
309,Blyth Road Car Park,-0.420500664,51.50418055
310,Falling Lane Car Park,-0.473691156,51.51474948
311,Pump Lane Car Park,-0.413552306,51.50510291
315,Livingston Designer Outlet Surface Car Park,-3.519405,55.882732
318,Monsal Head Car Park,-1.555864001,52.77332373
319,Oddfellows Road Car Park,-1.676754302,53.28896581
320,Hawkhill Road Car Park,-1.676754302,53.28896581
321,Over Haddon Car Park,-1.695529859,53.19477434
326,Wilton Park and Ride,-1.82392775,51.07465194
333,School Lane Car & Coach Park,-0.428042,53.842959
334,NCP C2C Rail Laindon Station Car Park,0.729755881,51.53788523
335,NCP C2C Rail Upminster Station Car Park,0.478511221,51.57921403
336,NCP C2C Rail Rainham Station Car Park,0.178492182,51.50878199
337,NCP C2C Rail Leigh-on-Sea Station Car Park,0.639938681,51.54117403
338,Hermiston Park & Ride,-3.314609528,55.91731158
339,Q Park Trinity Aberdeen,-2.100655727,57.14534976
340,Q Park - Marylebone,-0.16112862,51.51757618
343,Churchfields Multi Storey Car Park,-2.06227541,52.33581108
344,County Mall Shopping Centre - South Car Park,-0.185260606,51.11351362
345,County Mall Shopping Centre - North Car Park,-0.185260606,51.11351362
346,Waitrose Newmarket,0.408006735,52.24693995
347,Curzon Street Car Park,-1.143268,52.957912
348,Market Car Park,-2.125714564,52.58851108
349,Corser Street Car Park,-2.154141771,52.57952346
350,NCP Pepper Street Car Park,-2.890316615,53.18847501
352,NCP The Square - Bournemouth,-1.879343319,50.72095397
353,John Lewis Multi Storey Car Park,-1.466542979,53.38164204
355,NCP Wellgreen MSCP,-3.934856306,56.11429713
359,Birstall Shopping Park,-1.645400868,53.74610063
360,intu Lakeside Shopping Centre - Car Park 11,0.283086,51.487062
361,Intu Lakeside Car Park 9,0.283086,51.487062
363,empark UK Ltd - Long Stay - Stansted Airport,0.197579957,51.90247506
364,Banjo Road Car/Coach Park,-0.539832115,50.8032972
365,Gloucester Road Car Park (Lower Section),-0.666519364,50.78375402
366,West Park Car Park Aldwick,-0.692357375,50.78152847
367,Rock Gardens Car Park,-0.682486204,50.7804551
368,Lyon Street Car Park,-0.671575838,50.7850348
369,London Road Car Park,-0.671769879,50.78920088
370,Hotham Park Car Park,-0.663505966,50.78844098
371,Shrubbsfield Car Park,-0.617046571,50.7921352
372,East Green Car Park,-0.539847151,50.80323211
373,Fitzalan Pool Car Park,-0.552782319,50.85333716
374,Premiair Parking Edinburgh Limited,-3.369124323,55.9411154
376,Q Park Omni MSCP,-3.185256,55.957367
379,Station Street Car Park,-1.237918354,54.57910125
380,Library Car Park,-2.996360783,53.04787481
381,Waterworld Car Park,-2.996360783,53.04787481
382,Meadway West Car Park,-2.157919902,53.40459006
386,Town Hall - Llandudno,-3.83097993,53.32408269
387,Vicarage Gardens,-3.82751556,53.28025468
388,Island Green,-3.00162373,53.04516967
389,NCP St Mark's Road - Wrexham,-2.996165438,53.04781352
392,NCP Liverpool Moorfields,-2.988084251,53.40912817
395,Nuxley Road Car Park,0.143189059,51.48616753
396,Mill Road Car Park - Erith,0.160636205,51.47314001
397,Thanet Road Car Park,0.1448433,51.4406861
398,London Road Car Park,-0.725355148,52.39629159
399,Durrant Road Car Park,-1.432342212,53.23673435
400,NCP Castle Terrace MSCP,-3.203287386,55.94796845
403,Commercial Road Car Park,-0.730097294,52.39868762
404,Telford Shopping Centre - Lime Green Car Park,-2.446787605,52.67661903
406,NCP (WM) Birmingham Airport - MSCP 3,-1.733347,52.453142
407,NCP Great Northern (2),-2.246420379,53.4791903
408,NCP Great Northern (1),-2.246420379,53.4791903
409,NCP King Street West,-2.248886,53.48158
410,NCP Piccadilly Plaza,-2.23810646,53.47984534
411,NCP Salford Exchange Station Car Park,-2.245511,53.485294
412,NCP Chinatown Car Park,-2.422685458,53.4198476
414,NCP Sackville Street Car Park,-2.238029687,53.47689722
415,NCP Arena Car Park,-2.118292753,53.45615913
416,NCP Chorlton Street,-2.236303,53.477716
417,NCP Bridgewater Hall,-2.250622523,53.4737614
423,NCP Finsbury Square Underground Car Park,-0.087512221,51.52114694
426,Civic Centre Car Park,-4.143002216,50.36958785
429,Peterborough Station - Main Car Park,-0.249903566,52.57452104
430,NCP Piccadilly Car Park - York,-1.077746743,53.9563901
431,St Georges Hospital Tooting Visitors Car Park Two,-0.175740039,51.42672621
432,King Street Car Park,-2.218347788,52.18762838
433,Pitch Croft/Moors Car Park,-2.228347063,52.19604035
434,Oxford Street Car Park,-3.948351515,51.61372121
435,Park Street West Car Park,-3.946044998,51.62024318
440,NCP Kingsgate Multi Storey Car Park - Crawley,-0.185915096,51.11577208
447,Springfields Outlet Shopping & Festival Gardens,-0.127368192,52.79754052
448,Brunswick Shopping Centre,-0.402356616,54.28088328
449,Beach Street/Deal,1.40429082,51.22544887
450,Manley Close/Whitfield,1.28976659,51.15812346
451,Reach Road/St Margarets Bay,1.366204136,51.15036023
452,The Bay/St Margarets Bay,1.387979851,51.15221359
453,Castle Hill Coach Park/Guston,1.318030334,51.1264071
454,Priory Road/Dover,1.308906065,51.12734954
455,Pencester/Dover,1.312104169,51.1274928
456,Middle Street/Deal,1.403296894,51.2278976
457,Town Hall/Deal,1.402459598,51.225871
458,Stanhope Road/Deal,1.40212912,51.22469321
459,St Ethelburgas/Deal,1.400058165,51.22419574
460,Queens Road/Ash,1.279719562,51.28209061
461,High Street/Wingham,1.214840809,51.27012031
462,High Street/Eastry,1.307559775,51.24517269
463,Oak Street/Deal,1.403756504,51.22577927
464,The Street/Ash,1.281526423,51.27866674
465,Albany Place/Dover,1.311544173,51.12406343
466,Glasgow Fort Shopping Park,-4.136892149,55.87297561
467,Newbridge Lane Car Park,-2.152604571,53.41142841
468,Concourse Shopping Centre - Southway,-2.774297863,53.54988024
469,Civic Centre Car Park,-1.20491157,53.1511147
473,The Market Shopping Centre Car Park,-2.444408,53.098764
484,Fishergate Shopping Centre,-2.705751522,53.75694242
485,White Rose Centre Car Park,-3.490265602,53.32177788
486,Imagine Parking,-2.85492092,53.33730833
487,Spindles Town Square Shopping Centre Car Park Two,-2.113717367,53.54172604
488,The Valley Leisure Park,-2.423954944,53.59718918
489,Queen Square Car Park,-2.982860278,53.40766111
494,Marks & Spencer and Selfridges Car Park,-2.243944988,53.48370767
495,CMMC Grafton Street Multi Storey Car Park,-2.22770653,53.4624366
498,NCP Brewer Street MSCP,-0.135002617,51.5121367
505,St Johns Shoppers Car Park,-2.980948091,53.40726144
509,Cumberland Infirmary Zone D,-2.955295858,54.89574063
510,Cumberland Infirmary Zone A,-2.955295858,54.89574063
514,Broughton Shopping Park,-2.974107791,53.16706275
515,New Mersey Shopping Park,-2.879286157,53.35070486
516,Q Park - Albion Street,-1.545651,53.799205
517,Q Park - St John's Centre MSCP,-1.543166,53.800739
518,NCP Arundel Gate MSCP,-1.465848684,53.38244525
519,NCP Blonk Street MSCP,-1.461443484,53.3854574
520,NCP Hartshead MSCP,-1.467572523,53.38347138
521,NCP Campo Lane MSCP,-1.469131991,53.38380192
522,NCP Wellington Street MSCP,-1.473949451,53.37840295
533,Blackpool Victoria Hospital - Main Car Park,-3.016258849,53.8206703
548,Costco Wholesale UK Ltd - Haydock,-2.659889232,53.47417084
549,Costco Wholesale UK Ltd - Oldham,-2.159108997,53.52968354
550,Costco Wholesale UK Ltd - Liverpool,-2.997608008,53.41495484
551,Llandudno Coach Park,-3.829164527,53.31815006
552,Crompton Place Shopping Centre,-2.427583,53.57925
556,Hooton Station Park and Ride,-2.926707954,53.28041002
557,The Strand Shoppers Car Park,-2.992122173,53.45202061
569,Daisyfield Pools,-2.471335501,53.75406655
579,Maghull Railway Station Car Park,-2.932019638,53.50628258
580,Runcorn Shopping Centre,-2.697897,53.327185
581,Trident Retail Park,-2.697623401,53.32749981
586,Beaumont Street East Car Park,-1.554297209,54.52257596
588,APH Manchester,-2.259750366,53.40166483
592,NCP Osborne Street Multi Storey Car Park,0.902160645,51.88710051
593,NCP Nunns Road Multi Storey Car Park,0.897714256,51.89185996
595,Appletongate Car Park,-0.806449572,53.07697574
596,Church Street Car Park - Southwell,-0.951546061,53.07714697
597,Newark Long Stay Livestock Market,-0.813537007,53.07981546
599,Ladywell/Dover,1.309739633,51.12881017
600,One Piccadilly Gardens Car Park,-2.236436593,53.48033404
602,Sunniside Multi-Storey Car Park,-1.378529134,54.90840301
603,Edinburgh Airport MSCP,-3.364434005,55.94842803
604,Fountain Park Entertainment Centre Car Park,-3.216934043,55.94193981
605,Crown Point North Shopping Park,-2.117250695,53.4605646
611,Long Stay Car Park,-2.85492092,53.33730833
615,Amersham Multi-Storey Car Park (Long Stay),-0.603366385,51.67541771
616,The Mall Maidstone,0.525274983,51.27264656
617,Metro Centre Red Multi-Storey Car Park,-1.668560376,54.95764474
621,York Railway Station Short Stay Car Park,-1.093021771,53.95829505
622,York Railway Station Long Stay Car Park,-1.093021771,53.95829505
624,Leeds Bradford International Airport - Staff Car Park (F.A.),-1.659478574,53.86903677
625,Leeds Bradford International Airport Midstay/Short stay 2,-1.661531,53.867943
626,Retford Station Car Park,-0.948750963,53.31652108
629,Whitefriars Shopping Centre,1.079707146,51.27667589
630,Pershore - Abbey Park Car Park,-2.079029,52.1086
631,Evesham - Merstow Green Car Park,-1.949937,52.09194
632,Broadway - High Street (Church Close) Car Park,-1.855407,52.03642
636,The Gates Car Park,-1.578772329,54.77629546
641,The Howard Centre Car Park,-0.205231905,51.79986427
642,Q Park - QEMC - Parapatetic Car Park E,-1.941379,52.451086
651,Claremont Road Car Park,-1.627599362,54.98462933
652,Bradford Leisure Exchange,-1.746557951,53.79170919
653,Mill Dam Car Park,-1.440247,54.994874
654,Pier Parade Car Park,-1.415721904,55.00036733
655,Harbour Drive North Car Park,-1.42823496,55.00649265
658,Retail Park 1,-3.514990513,55.88375675
660,The Centre Car Park 3,-3.509957,55.883988
662,Pinfold Street - Bilston,-2.154141771,52.57952346
663,Oxford Street Car Park - Bilston,-2.154141771,52.57952346
665,Imperial War Museum North,-2.298730545,53.46971379
666,Tothill Multi Storey,-0.510494723,51.43313132
667,Elmsleigh Multi Storey,-0.497369,51.418802
668,NCP Moor Park (Approach) London Underground Car Park,-0.432911267,51.62993362
669,NCP South Ruislip London Underground Station,-0.399828886,51.55542673
676,Blue Bell Hill Car Park,0.505866,51.335814
677,Windsor - Meadow Lane Car Park,-0.610848,51.486815
678,Two Rivers Shopping Centre - North Car Park,-0.511443635,51.43580514
679,Princes Exchange Car Park,-3.205179654,55.94444554
683,Wolverhampton Station Multi Storey Car Park,-2.107342243,52.57235615
692,University Hospital of Hartlepool,-1.2280052,54.702378
693,University Hospital of North Tees,-1.346760224,54.58293707
697,Stuart Road Car Park,-1.315115804,53.69338034
698,Central III Car Park,-1.310734389,53.69366081
699,Newgate North Car Park,-1.313600339,53.69064815
700,Newgate South Car Park,-1.313791344,53.69100878
701,Cricketers Car Park,0.607547611,51.36320103
703,Newcastle Central Railway Station Long Stay Car Park,-1.616894348,54.96829468
704,Portico Darlington Station Car Park,-1.54648446,54.52138984
705,Station Approach - Darlington,-1.54648446,54.52138984
706,Garbutt Square Car Park - Darlington,-1.54648446,54.52138984
707,Aykley Heads Car Park - Durham,-1.581633609,54.77923504
708,Executive Car Park - Durham,-1.54648446,54.52138984
709,Long Stay Car Park No 1 Durham,-1.581633609,54.77923504
710,Long Stay Car Park No 2 Durham,-1.581633609,54.77923504
711,Crescent Road Car Park,-2.992023475,53.04738965
713,The Bridges MSCP,-1.384667516,54.90579217
714,Wilkinson Stores - Tyne & Wear,-1.602233648,54.95854633
718,The Mailbox Residential Car Park,-1.908252532,52.47854881
719,The Mailbox Car Park,-1.908252532,52.47854881
721,NCP Watford London Underground Station,-1.788100923,53.6471889
722,NCP South Harrow London Underground Car Park,-0.352757152,51.5646669
723,NCP Ruislip Gardens London Underground Station,-0.410922058,51.56162935
724,NCP North Ealing London Underground Station,-0.288989486,51.51762282
726,NCP Northwood London Underground Station,-0.423835949,51.61121617
727,NCP Ickenham London Underground Station,-0.440582108,51.56084931
728,NCP Hounslow West London Underground Station,-0.38570582,51.4731054
729,NCP Chorleywood London Underground Station,-0.518333789,51.65426943
730,NCP Chalfont & Latimer London Underground Station,-0.29545792,51.60451219
731,NCP Harrow on the Hill London Underground Station,-0.336998074,51.57938996
732,Springbridge Road MSCP,-0.304614099,51.51411784
734,Port Talbot Civic Centre Car Park,-3.936562355,51.62553482
737,Warwick Road Car Park,-0.492237252,51.58418493
738,Neville Court Car Park,-0.655585918,51.54266605
739,Bulstrode Way Car Park,-0.555819786,51.59692619
740,Packhorse Road Car Park,-0.555819786,51.59692619
741,Summers Road Car Park,-0.604081931,51.50707584
742,Jennery Lane Car Park,-0.604081931,51.50707584
743,Broadway Car Park,-0.604740381,51.53457288
744,Penncroft Car Park,-0.492237252,51.58418493
745,Altons Car Park,-0.641088886,51.61054229
746,Station Road Car Park,-0.555819786,51.59692619
747,Newcastle International Airport Short Stay Car Park,-1.710121189,55.0370198
748,Newcastle International Airport Long Stay Car Park,-1.710121189,55.0370198
749,Teesside Shopping Park,-1.278778322,54.55632638
751,Council Offices - High Wycombe,-0.74895595,51.62743239
756,Dean Street (Marlow),-0.776688532,51.57341318
757,Riley Road (Marlow),-0.777577308,51.57201969
758,Central Car Park (Marlow),-0.779168784,51.57078637
759,West Street (Marlow),-0.778023863,51.57097228
760,Institute Road (Marlow),-0.772393914,51.57159691
761,Sainsburys Supermarkets Ltd - Maidstone,0.527297737,51.27266585
762,Queen Street MSCP,-0.469558239,52.14078431
764,Clifton Down Shopping Centre,-2.610741358,51.4639956
765,Edinburgh Airport Main Surface Car Park,-3.364434005,55.94842803
768,Jubilee Place Car Park,-0.018737034,51.50257708
773,Lurke Street MSCP,-0.465030706,52.13791043
786,Lansdown Park & Ride,-2.491990635,51.40869677
791,Trinity Road,-1.405337358,50.9065774
792,Carlton Street Car Park - Weston Super Mare,-2.978175802,51.34498661
793,Locking Road Car Park - Weston Super Mare,-2.971192632,51.34610579
794,Grove Park Car Park - Weston Super Mare,-2.979333078,51.35280013
795,Melrose Car Park - Weston Super Mare,-2.974674118,51.35318968
796,Hampton Car Park - Weston Super Mare,-2.986546645,51.35300937
798,Portsmouth International Ferry Port,-1.088419,50.811556
799,Airparks Services Ltd - Slip End (Luton),-0.437940359,51.85585391
800,Friarscroft Car Park,-0.820938525,51.81534959
801,Upper Hundreds Car Park,-0.811941371,51.8176508
803,NCP Tanner Row Car Park,-1.08868825,53.95783082
804,Regent Street M/S car park - Luton,-0.418086416,51.87704332
806,Sprowston Park & Ride,1.341351058,52.66423846
807,Harford Park & Ride,1.275064828,52.59620899
808,St Martins Gate Multi Storey Car Park,-2.216534615,52.19241005
814,"Kirkleatham Street Car Park, Redcar",-1.07272517,54.61671066
815,Peter Street Car Park,-2.63053894,50.94094069
816,North Lane Car Park,-2.633328438,50.94298906
817,Goldcroft Car Park,-2.62796402,50.94496299
818,Court Ash Car Park,-2.63302803,50.94342171
819,Fairfield Car Park,-2.638306618,50.94031196
820,Princes Quay - Ibis Hotel Car Park,-0.339164282,53.74210145
822,Royal Derby Hospital - Car Park 2,-1.513823981,52.91034142
823,Royal Derby Hospital - Car Park 5,-1.513823981,52.91034142
824,Royal Derby Hospital - Car Park 3,-1.513823981,52.91034142
825,Royal Derby Hospital - Car Park 6,-1.513823981,52.91034142
826,Royal Derby Hospital - Manor Car Park,-1.513823981,52.91034142
839,Theatre Lane Car Park,-1.422917434,53.23676999
840,Queens Park South Car Park,-1.432342212,53.23673435
841,Village Way MSCP,-0.030459166,51.40573147
842,Fairfield Road Car Park,-0.026929379,51.4065145
843,St Georges Road Car Park,-0.024291,51.409796
844,Woodhouse Fold Car Park,-2.080743927,52.5994641
845,Batchcroft Car Park,-2.132799084,52.58341501
848,CP Plus - Ashford International Terminal - Car Park D,0.874791,51.142929
849,Gallions Reach Shopping Park,0.080348425,51.51696733
859,Hook Road Multi Storey Car Park,-0.264530182,51.33618874
860,St Andrews Street Car Park,-0.081579577,51.79654618
865,Cambridge University NHS Foundation Hospitals Trust - MSCP,0.125428963,52.19249879
866,Riverside Surface Car Park,-0.51330827,51.43287929
867,Elmsleigh Surface Car Park,-0.497369,51.418802
870,London Road Community Hospital - Clifton Street,-1.468571612,52.91421092
872,Two Rivers Shopping Centre - South Car Park,-0.511443635,51.43580514
876,Hornton Street Car Park,-0.19466669,51.50196446
877,NCP Woodside Park London Underground Station Car Park,-0.185418698,51.61787093
878,NCP Woodford London Underground Station Car Park,0.038249109,51.6015739
879,NCP Wembley Park London Underground Station Car Park,-0.279222575,51.56335068
880,NCP Wanstead London Underground Station Car Park,0.028757026,51.57490389
881,NCP Totteridge & Whetstone London Underground Station Car Park,-0.179051292,51.63078446
882,NCP Tottenham Hale London Underground Station Car Park,-0.062826288,51.58887966
883,NCP Theydon Bois London Underground Station Car Park,0.102347693,51.67147737
884,NCP Stanmore London Underground Station Car Park,-0.303094909,51.6196761
885,NCP South Woodford London Underground Station Car Park,0.027939712,51.5915547
886,NCP Snaresbrook London Underground Station Car Park,0.021166255,51.58109605
887,NCP Redbridge London Underground Station Car Park,0.052329249,51.57884644
888,NCP Queensbury London Underground Station Car Park,-0.285630551,51.5943605
889,NCP Oakwood London Underground Station Car Park,-0.131859889,51.6476413
890,NCP Newbury Park (LUL) Car Park 2 Ilford,0.08945,51.577042
891,NCP Newbury Park (LUL) Car Park 1 Ilford,0.080208,51.57415
892,NCP Mill Hill East London Underground Station Car Park,-0.210368903,51.60861407
893,NCP Loughton London Underground Station Car Park,0.055276571,51.64157358
894,NCP Leytonstone London Underground Station Car Park,0.009136563,51.56852391
895,NCP Hornchurch London Underground Station Car Park,0.218927363,51.5543563
896,NCP Highgate London Underground Station Car Park,-0.144230857,51.57263276
897,NCP High Barnet London Underground Station Car Park,-0.194748971,51.65065745
898,NCP Hainault London Underground Station Car Park,0.094174392,51.60400647
899,NCP Finchley Central London Underground Station Car Park,-0.193214093,51.60090544
900,NCP Fairlop London Underground Station Car Park,0.090591236,51.59611168
901,NCP Epping London Underground Station Car Park,0.113824564,51.6936903
902,NCP East Finchley London Underground Station Car Park,-0.164751262,51.58733466
903,NCP Debden London Underground Station Car Park,0.08379958,51.64549516
904,NCP Colindale London Underground Station Car Park,-0.250282214,51.59523263
905,NCP Cockfosters London Underground Station Car Park,-0.149923409,51.65202792
906,NCP Buckhurst Hill London Underground Station Car Park,0.046709768,51.62657946
907,NCP Canons Park London Underground Station Car Park,-0.29492386,51.60758883
908,NCP Brent Cross London Underground Station Car Park,-0.213329859,51.57660092
909,NCP Blackhorse Road London Underground Station Car Park,-0.039630509,51.58577863
910,NCP Arnos Grove London Underground Station Car Park 2,-0.134276799,51.61623283
911,NCP Barkingside London Underground Station Car Park,0.091224538,51.5860104
912,NCP Arnos Grove London Underground Station Car Park 1,-0.11569463,51.54241223
914,Elm Grove Car Park,1.154201995,51.80628857
915,Agate Road Car Park,1.151734954,51.78778137
917,Compton Walk Car Park,-1.396709962,50.90833167
918,Bedford Place MSCP,-1.424891679,50.91711582
919,Six Dials Car Park,-1.398648566,50.90910605
926,Buxton Street,-1.237180791,54.57717333
927,Gurney Street Car Park,-1.232832064,54.57642687
928,Penrith Car Park 2,-2.758568228,54.66175132
930,Windsor - King Edward VII Car Park,-0.603198,51.490168
931,Maidenhead - Grove Road Car Park,-0.719343,51.520825
932,Lancaster Station Car Park 3,-2.808103852,54.04878297
933,Bond Street Car Park,-3.053333306,53.79253079
934,Big Blue Hotel Car Park,-3.056990279,53.78763577
936,Howard Street Car Park,1.724698515,52.60720107
938,Market Place Car Park,1.7262679,52.60793421
940,Parkgate Shopping Centre,-1.346248197,53.44404707
943,Churchward Road Car Park (Paignton),-3.569011688,50.43855237
945,St Marychurch Car Park (Torquay),-3.521010876,50.48140479
946,Great Western Road Car Park (Paignton),-3.566265106,50.43428823
947,Hampton Avenue Car Park (Torquay),-3.521010876,50.48273605
948,Chilcote Close Car Park (Torquay),-3.522984982,50.48327537
949,Rugby Truck Stop North,-1.188784726,52.38194292
950,Smithfield South Car Park,-2.022237888,53.10405649
951,Asda - Bishop Auckland,-1.671329153,54.65801849
953,The Strand Car Park,-3.942539672,51.62205482
955,Mariner Street Car Park,-3.941939386,51.62558986
956,Landore Park and Ride,-3.848148507,51.72164178
957,YMCA Car Park,-3.948775738,51.62025183
958,Northampton Lane Car Park,-3.948775738,51.62025183
962,Clennon Valley Car Park (Paignton),-3.564194441,50.42497275
964,Car Park 4 Toys R Us,0.462817034,51.57113573
965,Europcar Heathrow,-0.474073071,51.47959429
966,Northgate Car Park,-0.778419367,50.83757148
968,Centrewest Car Park,-4.184085131,55.76091735
973,Olympia London Multistorey Car Park P3,-0.210551842,51.49664151
974,Bournemouth International Centre MSCP,-1.872188886,50.7211262
976,Surrey Street Car Park,-0.54500741,50.80823816
977,Times Square Multi-Storey Car Park,-1.621196836,54.96756228
978,Town Hall Front Car Park,-1.55426208,53.13968444
979,Station Yard Car Park,-1.560887477,53.12180252
980,Nether End Car Park,-1.613951233,53.24494869
981,Bank Street Zone A Car Park,-2.123947374,52.48525308
982,Dover Harbour Board - Dover Cruise Terminal,1.310564181,51.11576145
989,Birchley Street Car Park,-2.735108241,53.45623949
992,Eastlands Car Park,-1.083430052,51.26252579
993,Churchill Way East Car Park,-1.08994,51.266407
994,Castons Yard Car Park,-1.087292433,51.26182758
995,Alencon Link Car Park,-1.088064909,51.26704383
996,Vyne Meadows Car Park,-1.088376045,51.26914493
997,Joices Yard Car Park,-1.088097095,51.26284133
998,Sarum Hill Car Park,-1.089953184,51.2623311
999,Brinkletts Car Park,-1.09152,51.26186
1000,Albert Yard Car Park,-1.084169,51.263138
1001,Castons Car Park,-1.084262,51.263737
1002,Southern Road Car Park,-1.084262,51.263737
1003,Jacobs Yard Car Park,-1.085575819,51.26182758
1004,Feathers Yard Car Park,-1.08637,51.263135
1005,Central Car Park,-1.085046,51.263135
1006,Churchill Way West Car Park,-1.08994,51.266407
1007,Secure Airparks,-3.371161222,55.94450177
1009,Faulkland Street,-2.154141771,52.57952346
1010,Stockwell Road,-2.142293516,52.63488046
1011,Cattle Market Car Park,-2.227209806,52.19331108
1014,Gazen Salts/Sandwich,1.308971063,51.12805834
1015,Guildford Spectrum Leisure Complex,-0.562934231,51.24902582
1016,Vicarage Field Shopping Centre,0.08123074,51.53789624
1017,The Rose Car Park,-0.306526334,51.40730456
1018,Cattle Market Car Park,-0.299196369,51.41031885
1019,Bittoms Car Park,-0.305396318,51.40580508
1021,Seven Kings Car Park,-0.305011588,51.41171604
1022,Q Park - Eden Walk Shopping Centre,-0.304547,51.409193
1025,Overgate Shopping Centre,-2.971364,56.460212
1026,Kingswells Park & Ride,-2.222030838,57.15242518
1027,NCP Croxley London Underground Station Car Park,-0.441602116,51.64700859
1028,NCP Eastcote London Underground Station Car Park,-0.397417473,51.57683156
1029,NCP Greenford London Underground Station Car Park,-0.346535475,51.54208037
1030,NCP Hatton Cross London Underground Station Car Park,-0.423379569,51.46668488
1031,NCP Hillingdon London Underground Station Car Park,-0.449897034,51.5537789
1032,NCP Hounslow East London Underground Car Park,-0.356990081,51.47360575
1033,NCP Moor Park London Underground Car Park,-0.432911267,51.62993362
1034,NCP Osterley London Underground Station Car Park,-0.349722132,51.48148004
1035,NCP Perivale London Underground Car Park,-0.323833742,51.53627279
1036,NCP Rayners Lane London Underground Station,-0.358698328,51.57437201
1037,NCP Sudbury Town Underground Station,-0.314675581,51.55154565
1038,T K Maxx Commercial Street South Car Park,-0.899004876,52.24080752
1041,Westwood Lane Car Park,0.138619162,51.45561152
1046,Thompson Street West,-1.302404447,54.57088038
1047,Thompson Street East,-1.311982594,54.56517442
1049,Charing Cross Car Park,-4.269227013,55.86428793
1050,John Lewis Car Park,-3.524824,50.727547
1051,Mary Arches Street Car Park,-3.534475565,50.72245174
1052,Victoria Way Multi Storey Car Park,-0.561271435,51.3178797
1053,The Centre MSCP,-1.893898183,52.47793447
1054,Selfridges Moor Street Car Park,-1.903142451,52.4789493
1056,Roker Street Car Park,-1.215354548,54.68324416
1057,Intu Lakeside Car Park 8,0.283086,51.487062
1058,Intu Lakeside Car Park 7,0.283086,51.487062
1059,Intu Lakeside Car Park 6,0.283086,51.487062
1060,Intu Lakeside Car Park 5,0.283086,51.487062
1061,Intu Lakeside Car Park 4,0.283086,51.487062
1062,intu Lakeside Car Park 3,0.283086,51.487062
1063,Telford Shopping Centre - Brown Elm Car Park,-2.446787605,52.67661903
1064,Clyde Shopping Centre Multi-Storey,-4.395924141,55.90739169
1065,St Mary's Multi Storey Car Park,0.916095695,51.88951684
1067,Parrswood Entertainment Centre,-2.22026926,53.4077902
1071,Oxen Cove (Brixham),-3.515957594,50.40026384
1072,Breakwater (Brixham),-3.504520655,50.39968938
1073,Shoalstone Car Park (Brixham),-3.497847319,50.40096823
1074,Youngs Park (Paignton),-3.562016487,50.42606637
1075,Preston Gardens Car Park (Paignton),-3.560686111,50.44574041
1076,Lymington Road Coach Station (Torquay),-3.536149263,50.47410609
1077,Brunswick Square (Torquay),-3.538509607,50.47130648
1078,Walls Hill Car Park (Torquay),-3.511258364,50.47732203
1079,Princes Street Car Park (Torquay),-3.514348269,50.47891967
1080,Beacon Quay (Torquay),-3.524594307,50.45805729
1081,Abbey Park Car Park (Torquay),-3.536449671,50.46377402
1084,APCOA Great Northern & Thameslink Luton Airport Parkway MSCP,-0.396139029,51.87243004
1085,Weymouth Multistorey Car Park,-2.456301,50.610617
1086,The Forum Blackhorse Way Car Park,-0.330122954,51.06228961
1088,Camden Crescent/Dover,1.314888494,51.12325794
1089,Stembrook/Dover,1.314604453,51.12667526
1090,Maison Dieu/Dover,1.310628555,51.12804736
1091,St Georges/Deal,1.400146736,51.22481385
1092,Union Road/Deal,1.401196853,51.22623158
1093,Sainsburys West Street/Deal,1.400058165,51.22419574
1094,Harvey Shopping Centre Car Park,0.093580176,51.76918685
1100,Rishworth Street Multi Storey Car Park,-1.501065,53.685488
1101,Dean Street Multi Storey Car Park,-1.609734897,54.97045563
1102,Priory Park - Park & Ride,-0.411698605,53.72384778
1105,The Bridges Roof Top Car Park,-1.384667516,54.90579217
1107,Archer Street Car Park,-1.55788064,54.52750108
1108,Central House Car Park,-1.553889513,54.52888947
1109,Kendrew Street West Car Park,-1.555960178,54.52851592
1110,Kendrew Street East Car Park,-1.555498838,54.52857195
1115,Airedale General Hospital,-1.962697074,53.89801498
1116,Civic Centre - Surface Car Park,-1.610031784,54.97850844
1117,Blandford Square Car Park,-1.624092529,54.9702672
1119,College Street Car Park,-1.609464778,54.97736534
1121,Ellison Place Car Park,-1.60804003,54.97606671
1122,Leazes Park Road Car Park,-1.617518011,54.97499155
1123,Terrace Place South Car Park,-1.619396179,54.9762825
1126,Civic Centre - Underground Car Park,-1.610031784,54.97850844
1127,Eldon Gardens Multi Storey Car Park,-1.615688812,54.9767651
1128,Eldon Square Multi Storey Car Park,-1.616742107,54.97444094
1134,Marks & Spencer Plc - Sprucefield Shopping Centre,-6.058884693,54.49105458
1135,Q Park - The Piazza - Manchester,-2.239953504,53.47871807
1136,NCP Breightmet Street Car Park,-2.424941809,53.57657498
1137,Spindles Town Square Shopping Centre Car Park One,-2.115164467,53.54114939
1141,Centre Retail Park,-2.128741675,53.56474838
1143,The Victoria Centre,-3.828280535,53.32275759
1144,NCP Clive Street Car Park,-2.427586964,53.57978345
1146,Coliseum Leisure Car Park,-2.886924,53.264225
1147,Sylvan Park Car Park,-1.908180356,53.25886902
1148,Albert Street Car Park,-1.969724646,53.45922505
1149,Plascom Road Park & Ride,-2.156150859,52.58424956
1152,Birmingham Street - Stourbridge,-2.138998842,52.45763655
1157,North Devon District Hospital,-4.051436674,51.09122568
1159,Desborough Road Car Park,-0.759081378,51.62963497
1162,Charlotte Street North,-1.430566217,54.99534236
1163,Trow Quarry Car Park,-1.377796298,54.97712883
1164,Charlotte Street South,-1.430566217,54.99534236
1165,St Hilda Street Car Park,-1.43204711,54.99452253
1166,Thomas Street Car Park,-1.431793493,54.99587831
1167,North Street Car Park,-1.435501974,54.99894199
1168,Salem Street Car Park,-1.434829951,54.99892988
1169,Thornhill Park & Ride,-1.187574021,51.76251839
1175,Dalton Park,-1.400131395,54.81919266
1177,Regent Street Multi Storey Car Park,-4.152315006,50.37058511
1178,Coy Pool Park & Ride,-4.152315006,50.37058511
1179,Avenue Road Multi Storey Car Park - Bournemouth,-1.884158707,50.72141749
1180,Woolgate Shopping Centre Car Park,-1.484480605,51.78499231
1186,Falcon Car Park,-4.22076852,57.47907707
1187,Water Eaton Park & Ride,-1.25366056,51.80487442
1188,St John's Multi Storey Car Park,0.916095695,51.88951684
1193,Gayton Road Car Park - Abbey Wood,0.115371984,51.49016207
1195,Main Road - Sidcup,0.111302584,51.42544931
1197,Artington Park & Ride,-0.580290556,51.21825515
1198,APCOA Paddington Station Car Park,-0.177433221,51.51750697
1200,Devonshire Row Mews,-0.14532975,51.52257912
1206,The Belfry Shopping Centre,-0.170502663,51.23965358
1208,Freshwater Quarry Car Park (Brixham),-3.516494036,50.40085197
1209,Crown & Anchor Way Car Park (Paignton),-3.571017981,50.43624951
1210,Meadfoot Road Car Park (Torquay),-3.519970179,50.46077573
1211,Shedden Hill Car Park (Torquay),-3.534572124,50.46425892
1212,Town Hall Car Park (Torquay),-3.53304863,50.46967444
1213,Roundham MSCP (Paignton),-3.556287289,50.43139741
1214,Union Square MSCP (Torquay),-3.529057503,50.46776234
1215,Brixham Central Car Park (Brixham),-3.514090776,50.39516184
1216,Lower Union Lane MSCP (Torquay),-3.531213999,50.46690188
1219,Bentall Centre Car Park A,-0.305388,51.41232
1222,Park Street Multi Storey Car Park,0.120062823,52.2091768
1223,John Lewis/Waitrose Car Park Kingston on Thames,-0.306316066,51.41143814
1224,Sevenoaks Car Park No 1 (Season Ticket Only),0.182038526,51.27683399
1229,"Herbert Road MSCP, Ealing",-0.376946,51.510635
1230,St Johns Road Car Park,-0.288470792,51.55374712
1234,Public Hall Car Park,-0.148905516,51.35644693
1235,Melbourne Road car park,-0.149688721,51.36136438
1236,Wallington Library,-0.151094198,51.35827596
1237,Shotfield Car Park,-0.151544809,51.3573849
1238,Union Terrace Car Park,-1.081907381,53.96817859
1240,Wellingborough South Railway Station,-0.676590259,52.30384344
1241,Q Park - Sheffield Railway Station Car Park,-1.462720586,53.37836193
1242,Waitrose Car Park - Cheltenham,-2.083832997,51.90179931
1243,The Potteries Shopping Centre,-2.175351977,53.02831634
1244,Pryme Street Car Park,-0.346448629,53.74774861
1245,Intu Bromley Shopping Centre,0.016577112,51.40388881
1248,Festival Place Shopping Centre,-1.087791317,51.26484987
1249,Evesham - Burford Road Car Park,-1.937503,52.092924
1250,NCP Glasgow Airport MSCP 2,-4.432082705,55.86465455
1252,Hillstreet Centre Car Park,-1.239055,54.577222
1255,Mayflower East MSCP,-4.140970795,50.37319612
1256,Ocean Terminal - Surface Car Park,-3.175842762,55.98133794
1257,Ocean Terminal - Blue Car Park,-3.175424337,55.98170408
1258,Ocean Terminal - Red Car Park,-3.178750277,55.97974127
1259,Bicester Village - MSCP,-1.155571486,51.89176866
1260,Broad Street Car Park,-2.089669252,52.5814957
1264,The Gate Car Park,-1.618447969,54.97247827
1266,Leicester Railway Station,-1.125175953,52.63219034
1267,The Mall Wood Green East Car Park,-0.108556746,51.59453568
1268,Telford Shopping Centre - Cherry Pink MSCP,-2.446787605,52.67661903
1269,St Nicholas Shopping Centre Car Park,-0.195552,51.364661
1271,Newbury - Kennet Centre Multi-Storey Car Park,-1.324632,51.39899
1274,St Johns Multi Storey Car Park,-0.893386036,52.23471307
1275,The Fort Shopping Park,-1.823690196,52.50871381
1276,Prince Bishops Shopping Centre,-1.574316905,54.77716959
1279,Marlands MSCP,-1.396709962,50.90833167
1281,Derby South Railway Station,-1.4635849,52.91495791
1282,Manor House Car Park,-0.540342883,50.80943895
1283,West Green Car Park,-0.539847151,50.80323211
1284,Churchill Parade Car Park,-0.506025692,50.81029599
1286,Chesterfield Railway Station,-1.420465708,53.23807948
1287,Derby North Railway Station,-1.463499069,52.91687283
1288,Fosse Park Plaza South,-1.181176339,52.59752438
1290,Andrew Road Car Park,-2.054614561,52.44792429
1291,Fosse Park Plaza North,-1.181176339,52.59752438
1299,NCP Long Ashton Park & Ride - Bristol,-2.646414793,51.48144632
1300,Wellingborough North Railway Station,-0.677161217,52.30404403
1301,Kettering North Railway Station,-0.731674433,52.3938627
1302,Priory Meadow Shopping Centre,0.576922969,50.85774999
1304,Q Park - Birmingham - Brindley Place Car Park,-1.912469,52.478096
1306,Q Park - Criterion Place Multi Storey Car Park,-1.543787452,53.80093591
1311,Q Park - The Shambles,-1.083288875,53.95871553
1312,Colwick Race Course Park and Ride Car Park,-1.111259,52.949962
1313,Brent Cross Shopping Centre,-0.224516925,51.57617722
1314,Royal Preston Hospital Car Park A,-2.704499193,53.79086295
1317,Market Harborough Railway Station,-0.908260345,52.48034956
1318,Southampton International Airport - Short Stay Car Park,-1.361565,50.950401
1320,Mewsbrook Car Park,-0.50720032,50.80720287
1321,St Georges Shopping Centre MSCP,-0.338842586,51.58144837
1323,Times Square MSCP,-0.190813911,51.36446892
1324,West Park MSCP,-1.396709962,50.90833167
1327,Rouen Road Car Park,1.298959786,52.6262232
1329,Official Gatwick Parking - Long Stay South Terminal Car Park Gatwick,-0.154015,51.155596
1330,Peel House Multi Storey Car Park,-0.330731852,51.59835584
1332,Newbury - Northbrook Multi Storey,-1.326089,51.402561
1333,Q Park St Johns Wood,-0.172413727,51.53415516
1334,Cabot Square Car Park,-0.019455268,51.50495433
1337,St Martins Car Park,-0.53769507,50.80806199
1338,Old George Mall Shoppers Car Park,-1.797279,51.067672
1339,Official Gatwick Parking -  Short Stay South Terminal Car Park Gatwick,-0.163049,51.15599
1340,Vinci Park University Hospital of Wales Car Park 8,-3.189358705,51.50676262
1341,Q Park - Sauchiehall Street,-4.262014,55.8645
1342,Sandgate Car Park,-1.600009182,54.97139457
1345,Q Park - Knightsbridge Car Park,-0.156654751,51.49915189
1347,Gibson Road MSCP,-0.196927786,51.36241613
1350,Airparks Services Ltd - Birmingham,-1.768789,52.472442
1352,St Anns Car Park,-1.599340876,54.97105089
1353,Churchill Place Car Park,-0.014198,51.504318
1354,Westferry Circus Car Park,-0.019455268,51.50495433
1355,Orchard Street Multi Storey Car Park,-0.190998839,51.11621059
1356,Concert Square MSCP,-4.243705394,55.86488184
1357,Cambridge Steet MSCP,-4.258928945,55.86612218
1358,Regent Arcade Car Park,-2.074874,51.899392
1360,Airport Park & Ride,1.271596872,52.66949622
1365,Q Park - Trafalgar Square,-0.129750905,51.50699916
1366,APH Snowhill - Copthorne,-0.075443452,51.14211862
1367,Buttermarket Shopping Centre,1.153912446,52.05675914
1368,Castle Mall Norwich - Car Park Two,1.295902,52.62662
1369,Castle Mall Norwich - Car Park One,1.295902,52.62662
1370,Queens Drive Park and Ride Car Park,-1.039879182,53.015864
1371,Purple Parking - Gatwick,-0.208757,51.142624
1372,Farnham Road MSCP,-0.5809021,51.23499851
1373,York Road MSCP,-0.569669008,51.23924385
1374,G Live Car Park,-0.566291,51.239162
1375,Q Park - Nottingham Talbot Street Car Park,-1.155303,52.956107
1376,Hempstead Valley Shopping Centre - Underground,0.572747513,51.34160309
1377,Hempstead Valley Shopping Centre - Multi Storey,0.572747513,51.34160309
1378,Hempstead Valley Shopping Centre - Surface,0.572747513,51.34160309
1379,Sovereign Shopping Centre,-2.98014805,51.34859397
1383,H M Revenue & Customs Car Park,-0.533207261,53.268454
1384,Harpur Shopping Centre Car Park,-0.469526052,52.13593124
1385,Charter Walk Shopping Centre,-2.242470178,53.79001766
1386,St Marys Multi Storey Car Park,-1.384016091,54.90861967
1387,Official Gatwick Parking - Long Stay North Terminal Car Park Gatwick,-0.177858,51.160472
1388,NCP Knox Road MSCP -Cardiff,-3.139002,51.48887
1393,Friars Square Shopping Centre Car Park,-0.813632,51.815484
1394,Slaithwaite Road Car Park,-0.009947371,51.45924436
1395,Clarendon Rise Car Park,-0.009947371,51.45924436
1396,Orchards Shopping Centre Dartford,0.219024012,51.44513251
1397,Beechwood Shopping Centre,-2.071998896,51.89997298
1400,Lode Lane Car Park,-1.781883705,52.40569741
1401,The Marks & Spencer Car Park,-1.782637003,52.41393389
1407,Official Gatwick Parking - Holiday Parking Gatwick,-0.197587,51.160331
1408,Lewisham Shopping,-0.012625607,51.46187976
1409,Upper Head Row Multi Storey,-1.786477112,53.64520857
1410,Green Lanes Shopping Centre,-4.060485845,51.08211795
1411,Gloucester Green,-1.261281967,51.75442604
1412,Crowngate Shopping Centre Car Park,-2.223827881,52.19313481
1413,APCOA - Birmingham - The Arcadian Centre,-1.896019,52.47366
1414,Centre Court Shopping Centre,-0.204023435,51.42189332
1415,Princes Quay Car Park,-0.339164282,53.74210145
1416,Freshney Place Shopping Centre Car Park,-0.086871386,53.5661784
1417,Huddersfield Central Lodge Hotel Car Park,-1.779596,53.647692
1418,The Rooftop Car Park,-1.13533069,52.63590138
1419,Trinity Square MSCP,-1.149351,52.955876
1420,Market Hall Multi Storey Car Park,-1.783910061,53.64431411
1421,Kings Car Park,-0.392856517,51.65412076
1422,Queens Car Park,-0.392856517,51.65412076
1423,Brooks Shopping Centre Car Park - Winchester,-1.312032807,51.06296743
1425,Eastbourne Arndale Centre,0.285080038,50.76920469
1426,Shoppers Blue Car Park,-0.578987892,51.32086572
1428,Tallow Hill Car Park,-2.212092876,52.19289674
1430,Heathrow Terminal 1 MSCP,-0.451841191,51.46970794
1431,Terminal 1 & 3 Long Stay Car Park,-0.422162629,51.4769199
1432,Great North Leisure Park Car Park,-0.177831717,51.61506463
1437,Meadowhall Centre,-1.412455059,53.41303797
1438,McArthurglen Designer Outlet - York,-1.077466107,53.92215156
1439,Norfolk and Norwich University Hospitals NHS Foundation Trust,1.219868,52.616833
1452,Saltergate Multi Storey Car Park,-1.425952533,53.23725208
1454,High Street Car Park - Llandaff,-3.2191372,51.49413769
1456,Richmond Gardens Multi Storey Car Park,-1.877243663,50.72212085
1457,Dodderidge Street Car Park,-0.905203532,52.24126078
1458,Cattlemarket Car Park,-0.773924451,50.83567176
1460,Welbeck Street Car Park,-1.356419995,53.7248532
1462,Wesley Street Car Park,-1.352617466,53.72672029
1463,APH West Car Park,-0.131888532,51.15196432
1464,St James House Car Park 2,-2.288387024,53.49059288
1465,Q Park - QEMC - Post Graduate Car Park B2,-1.936279223,52.4532689
1467,Q Park - QEMC - MSCP D,-1.941379,52.451086
1474,University Hospital of North Durham - Visitors' & Staff Car Park,-1.59293284,54.78889827
1475,Touchwood Car Park,-1.779027656,52.4124438
1476,John Lewis Car Park,-1.779027656,52.4124438
1482,Huyton Multi Storey Car Park,-2.837193067,53.41211511
1486,The Odyssey Car Park,-5.915396532,54.60392748
1487,Lemon Quay Multi Storey Car Park,-5.051781124,50.26104741
1490,St Catherines Park & Ride Car Park -Winchester,-1.306430404,51.05588423
1491,Barfield Park & Ride Car Park - Winchester,-1.306713162,51.05510356
1492,Q Park - The Light,-1.545634272,53.8000441
1493,The Lanes Shopping Centre,-2.934451322,54.89520175
1494,Huish Car Park,-2.639401258,50.94181698
1495,Lisburn Square Car Park,-6.04669875,54.510307
1497,Q Park - Park Lane Car Park,-0.156428064,51.50940898
1502,Canada Square Car Park,-0.019455268,51.50495433
1505,Middleton Grange - Basement Car Park,-1.213731004,54.68378185
1506,Middleton Grange - Multi Storey Car Park,-1.213731004,54.68378185
1507,Eden Street Car Park,-1.214059881,54.68201353
1508,Beaumont Shopping Centre - Car Park D,-1.166449101,52.66633124
1509,Beaumont Shopping Centre - Car Park C,-1.12429691,52.66377975
1510,Beaumont Shopping Centre - Car Park B,-1.166449101,52.66633124
1511,Beaumont Shopping Centre - Car Park A,-1.166449101,52.66633124
1514,Pavilions Shopping Centre,-0.032199777,51.68650686
1515,Kings College Hospital NHS Trust,-0.092312518,51.4683566
1516,Prudential Group,-3.973551961,56.13243101
1517,County Hall Residents' Car Park,-0.116727,51.502555
1518,The Forum Car Park,1.29098,52.627791
1525,Intu Victoria Centre - White Zone,-1.146267,52.955358
1528,Intu Uxbridge MSCP,-0.475716591,51.54633505
1529,Vaughan Road Car Park,-0.344408534,51.57961165
1530,Gayton Road Car Park,-0.329684543,51.58361143
1531,The Royal Marsden Hospital - Visitors Car Park,-0.190386052,51.34361687
1532,Lowry Outlet Mall Car Park,-2.293058288,53.47075254
1533,Liberty Shopping Centre,0.183325867,51.5784872
1534,Windsor - The Coach Park,-0.615765,51.480292
1538,London Road Community Hospital - Boiler House Car Park,-1.468571612,52.91421092
1539,London Road Community Hospital - Main Entrance Car Park,-1.468571612,52.91421092
1545,NCP NX East Anglia -  Ipswich Station Multi Storey Car,1.144194323,52.05072319
1549,Avenue Road Car Park,0.145115214,51.46552013
1554,Walkden Street MSCP,-1.201708361,53.14483667
1555,Four Seasons MSCP,-1.198000765,53.14482075
1556,The Marlowes Shopping Centre Car Park,-0.47141,51.749158
1558,Aberdeen Airport Short Stay,-2.20343511,57.20048975
1560,Eastgate Shopping Centre,0.461464142,51.56986908
1561,Middlebrook Estate,-2.534748817,53.58331644
1562,Paisley Centre Shoppers Car Park,-4.424500778,55.84455413
1563,Costessey Park & Ride,1.186743659,52.64601685
1564,Spital Bank Car Park - Peterborough,-0.249903566,52.57452104
1571,Official Gatwick Parking - Summer Special Parking Gatwick,-0.193602,51.154774
1572,Beehive Lane Multi-Storey Car Park,-1.204946619,52.76858741
1573,APCOA - Birmingham - China Town Car Park,-1.895932,52.475346
1574,Kirkgate Shopping Centre,-1.7556147,53.79471459
1577,Q Park - QEMC - Car Park K,-1.936279223,52.4532689
1583,Q Park - QEMC - Pathology Car Park,-1.936279223,52.4532689
1587,Q Park - QEMC - Womens Hospital Car Park G1,-1.941379,52.451086
1588,Q Park - QEMC - Womens Hospital Car Park G2,-1.941379,52.451086
1591,Smith Lane Car Park,-1.794637,53.805372
1603,Sir John Hawkins (Upper) Car Park,0.523219,51.383321
1604,Macclesfield Station Car Park No 1,-2.122156303,53.25935417
1606,Old Police Station Car Park,-0.574303865,51.23710107
1608,Tolney Lane Car Park,-0.846111441,53.09157071
1609,Vinci Park West India Quay Car Park,-0.022886651,51.50790793
1611,Twyford Road Car Park,-1.350181103,50.97142039
1612,Wells Place Car Park,-1.353162712,50.96752188
1613,Q Park - Burlington Street,-0.140519,51.510632
1614,Park & Cycle Facility - West Cambridge Site,0.141565523,52.1766235
1615,New Hall Walk,-1.822491251,52.56125898
1616,Station Road Market Car Park,-3.936562355,51.62553482
1617,Bethany Square Car Park,-3.890208846,51.66365446
1618,Milland Road Car Park,-3.890208846,51.66365446
1622,Debenhams Edgbaston Street Car Park,-1.893755386,52.47609136
1623,King Street Car Park,-2.084172259,52.50852752
1624,Flood Street Zone 4,-2.083523711,52.50839313
1625,Flood Street Zone 3,-2.083523711,52.50839313
1626,Flood Street Zone 2,-2.082095497,52.50891556
1627,Flood Street Zone 1,-2.082095497,52.50891556
1628,Stafford Street Car Park,-2.090598225,52.50948472
1629,Manor Park Car Park,-2.166460417,52.49658242
1630,Birmingham Street Car Park - Halesowen,-2.049260058,52.44907738
1631,Dolphin Shopping Centre Car Park,-1.980902475,50.71796625
1632,Penrith Station,-2.758568228,54.66175132
1633,Carlisle Station,-2.933152022,54.89093397
1634,Runcorn Station - Holloway,-2.739286321,53.33859314
1635,Runcorn Station - Concourse,-2.739286321,53.33859314
1636,Runcorn Station - MSCP,-2.739286321,53.33859314
1638,Star City Red Car Park,-1.858147658,52.5012354
1639,Star City Blue Car Park,-1.856483917,52.50547673
1640,Star City Green Car Park,-1.858147658,52.5012354
1641,Star City MSCP,-1.856457,52.502198
1644,Phoenix Street Car Park,-1.43308766,52.93362623
1645,Howgate Shopping Centre,-3.780916023,55.99872038
1646,Ashford Designer Outlet,0.878600022,51.13708798
1647,Gunwharf Quays Car Park,-1.105445623,50.79615005
1657,Lyme Light Boulevard Car Park,-2.22611,53.010114
1658,Beehive Park & Ride,-1.776924671,51.10408443
1659,School Lane Car Park,0.564693384,51.54499341
1666,The Capitol Shopping Centre,-3.172355337,51.48260124
1667,Ferrytoll Park & Ride,-3.441982351,56.02571365
1677,Eastbourne District General Hospital Site Car Park,0.268092155,50.78643115
1678,Derby Pride Park Railway Station Car Park,-1.461954117,52.91661407
1679,Q-Park Westminster,-0.137444803,51.49642928
1680,Q Park Oxford Street,-0.144615,51.515974
1681,Q Park China Town,-0.129692,51.512082
1683,Q Park - Soho,-0.136431802,51.51349034
1689,Hampden House Car Park,-0.808221807,51.81730745
1693,Commercial Street West Car Park,-1.555777788,54.52699677
1694,Commercial Street East Car Park,-1.554973125,54.52745127
1695,Garden Street Car Park,-1.551711559,54.52869024
1696,Feethams Car Park,-1.552602053,54.52399565
1697,The Alhambra Centre - Barnsley,-1.478303137,53.55088028
1698,Windsor - River Street Car Park,-0.60843,51.484506
1700,Wadcroft Car Park,-1.252643288,52.20121185
1701,School Lane Car Park,-1.252643288,52.20121185
1702,Municipal London Road Car Park,-0.726385117,52.39616066
1703,Aberdeen Airport Long Stay,-2.20343511,57.20048975
1705,School Street,-2.116161226,52.5705768
1706,Fold Street,-2.132799084,52.58341501
1723,Quedam Shopping Centre,-2.629073992,50.94227773
1724,High Street Shops MSCP,-1.987788034,50.71337182
1725,Quay Visitors Car Park,-1.984867498,50.72193269
1726,Shoppers 1 & 2 Multi Storey Car Park,-1.984867498,50.72193269
1730,Telford Shopping Centre - Central Square Car Park,-2.446787605,52.67661903
1731,Telford Shopping Centre - Blue Willow Car Park,-2.446787605,52.67661903
1732,Telford Shopping Centre - Yellow Beech Car Park,-2.446787605,52.67661903
1733,Telford Shopping Centre - Ash Grey Car Park,-2.446787605,52.67661903
1735,Q Park - University of South Wales - Student Car Park (Residences),-3.32577539,51.58873783
1736,Q Park - University of South Wales - Main Staff Car Park,-3.32577539,51.58873783
1737,Royal Hospital - Monica & Mulhouse Car Parks,-5.954024381,54.59424277
1738,Royal Hospital - Estates Car Park,-5.954024381,54.59424277
1740,Costco Wholesale UK Ltd - Gateshead,-1.659011514,54.96035921
1741,Queens Street,-1.176811947,52.27277705
1742,Skydome,-1.518603085,52.40783144
1744,Bright Hill Car Park,-0.56807881,51.23655312
1745,Castle MSCP,-0.570151806,51.23548217
1746,Leapale Road Car Park,-0.573606491,51.23712794
1747,Millbrook Car Park,-0.573563576,51.2322442
1753,GlaxoSmithKline UK - Stockley Park Car Park,-0.451388119,51.51113894
1754,West Quay Multi Storey Car Park,-1.406607621,50.90510906
1755,West Quay Podium Car Park,-1.406607621,50.90510906
1756,Concourse Shopping Centre - Multi Storey,-2.774297863,53.54988024
1758,St Georges Shopping Centre Car Park,-2.702487165,53.75856153
1759,Q Park - University of South Wales - Llantwit Road,-3.32577539,51.58873783
1760,Cornmill Shopping Centre,-1.554624658,54.52579683
1761,Long Stay Car Park - Dunbar,-2.513206382,55.99863406
1766,St Georges Crescent Car Park,-2.992023475,53.04738965
1767,The Ridings Surface Car Park,-1.015234084,52.20702176
1768,The Mayorhold MSCP,-0.899004876,52.24080752
1769,St Michaels MSCP,-0.888874253,52.24180949
1773,Mayor's Walk Station Car Park - Peterborough,-0.249903566,52.57452104
1775,St Georges Hospital Tooting Visitors Car Park One,-0.164656507,51.43049199
1776,Gyle Shopping Centre,-3.314420268,55.9384493
1777,Whiteleys Shopping Centre,-0.18874,51.514579
1778,The Swan Shopping Centre,-2.248853296,52.38836636
1779,Millennium Square Car Park,-2.59925244,51.45069303
1781,Kettering South Railway Station,-0.731191635,52.39320144
1782,Rugby Railway Station - Railway Terrace Car Park,-1.271103853,52.36681778
1783,Rugby Railway Station - Mill Road Car Park,-1.271103853,52.36681778
1784,Rugby Railway Station - Murray Road Car Park,-1.271103853,52.36681778
1785,South Road Car Park Midsomer Norton,-2.491990635,51.40869677
1786,Odd Down Park & Ride Car Park,-2.491990635,51.40869677
1790,Cameron Toll Shopping Centre,-3.163784,55.92716
1795,Marlborough Gate Car Park,-0.74877489,52.04397705
1797,The Treaty Centre - Multi Storey Car Park,-0.354439116,51.47046755
1798,Q Park - Candleriggs MSCP,-4.244115127,55.85757642
1800,Rawcliffe Bar Park & Ride,-1.122865766,53.98431278
1801,Newark Northgate Station - North Car Park,-0.80102676,53.08087672
1803,intu Lakeside - Car Park Green,0.283086,51.487062
1804,intu Lakeside - Car Park White,0.283086,51.487062
1805,intu Lakeside - Car Park Mauve,0.283086,51.487062
1806,intu Lakeside - Car Park Yellow,0.283086,51.487062
1807,intu Lakeside - Car Park Pink,0.283086,51.487062
1808,intu Lakeside Shopping Centre - Blue Car Park,0.283086,51.487062
1809,intu Lakeside - Car Park Red,0.283086,51.487062
1810,Heywood Distribution Park,-2.238917968,53.58131567
1811,Apcoa Parking UK Ltd - Wilkinsons Store - Blackpool,-3.05330488,53.8192631
1812,St Anns Shopping Centre Car Park,-0.337530719,51.58496379
1816,Wheatsheaf,-2.884372473,53.56791786
1817,The Stiles Car Park,-2.886013985,53.56873341
1818,Two Saints,-2.887859344,53.56752282
1819,Park Pool,-2.889178991,53.56781592
1820,Market Way,-2.885702848,53.56649699
1821,Lunesdale,-2.885348797,53.56558582
1822,Hutton Way,-2.887204885,53.56684106
1823,Hants Lane,-2.884426117,53.56987387
1824,Bus Station,-2.882688046,53.56691115
1826,St Giles Car Park,-2.992023475,53.04738965
1827,Swan Roof Top Car Park,-1.351103783,50.96706255
1828,Leigh Road Car Park,-1.352562904,50.96956245
1829,Romsey Road Car Park,-1.352434158,50.97047454
1830,Mitchell Road Multi Storey Car Park,-1.351082325,50.96833278
1831,Surrey Quays Leisure Park,-0.055243356,51.49629974
1832,Croneens Car Park,0.553949,51.387716
1834,Britton Farm Car Park,0.546904892,51.38828841
1835,Sir John Hawkins (Lower) Car Park,0.523291,51.382975
1836,Fullagers Yard Car Park,0.524759815,51.38108723
1837,High Street (No 1) Car Park - Rochester,0.508921853,51.38555573
1838,Slicketts Hill Car Park,0.529859418,51.38234423
1849,Aspects Leisure Park,-2.506789729,51.45978824
1852,Harlequins Car Park,-3.5341537,50.72375582
1859,East Midlands Designer Outlet - Customer Car Park 1,-1.309981568,53.10676019
1861,Town Hall Multi Storey Car Park,-0.184151872,51.11701275
1862,Kinnoull Street Multi Storey,-3.431747182,56.39779271
1867,Wycombe Swan Car Park,-0.749793774,51.62796285
1869,Easton Street,-0.745819088,51.62801936
1871,Liston Road (Marlow),-0.774735723,51.57144154
1872,Pound Lane,-0.776722981,51.56782951
1873,Eastgate Car Park,-4.22076852,57.47907707
1874,West End Multi Storey Car Park,-2.609478669,51.45565776
1876,The Square,-1.316176069,54.56504541
1877,West Row,-1.314204816,54.56362326
1878,Tower Street,-1.322176454,54.55481578
1879,Parliament Street,-1.316575253,54.55874764
1880,Riverside,-1.310495725,54.56163399
1881,Lodge Street,-1.31627073,54.56216105
1882,Bright Street,-1.316843927,54.564447
1883,Laing Street,-1.314170214,54.56844919
1884,Hume Street,-1.31302005,54.56970088
1885,Bath Lane East,-1.309937239,54.56755243
1886,Bath Lane North,-1.310967207,54.56785099
1887,Prince Regent Street,-1.314858525,54.56337532
1888,Skinner Street North,-1.317356631,54.56381184
1889,Municipal Buildings,-1.302334513,54.56954089
1890,Bishop Street,-1.311589479,54.56541893
1893,Hollis Lane Car Park,-1.421079244,53.23419918
1894,Station Lane Car Park,-1.430776903,53.24404402
1895,Holywell Cross Car Park,-1.424258459,53.23732481
1896,Albion Road Car Park,-1.436392901,53.2374727
1898,Soresby Street Car Park,-1.432342212,53.23673435
1899,Spa Lane Car Park,-1.430776903,53.24404402
1900,Rose Hill Car Park,-1.436392901,53.2374727
1901,Queens Park North Car Park,-1.432342212,53.23673435
1902,Uttoxeter - The Maltings Car Park,-1.863104,52.900117
1903,St Marys Gate Car Park,-1.424433602,53.23543795
1913,Broadway Plaza Car Park,-1.921674965,52.47351498
1915,Barbican Leisure Park,-4.125338829,50.36706981
1916,intu Braehead Shopping Centre  Marks & Spencer Car Park,-4.364801,55.875941
1917,intu Braehead Shopping Centre  Blue South Service Car Park,-4.364801,55.875941
1918,intu Braehead Shopping Centre Retail Car Park,-4.364801,55.875941
1919,intu Braehead Shopping Centre Green Car Park,-4.364801,55.875941
1920,intu Braehead Shopping Centre Red Car Park,-4.364801,55.875941
1924,Victoria MSCP (Paignton),-3.563475609,50.43661852
1926,Surrey Quays Shopping Centre Car Park,-0.046968987,51.49539782
1927,Q Park - Butlers Wharf Car Park,-0.073581793,51.50249275
1931,Canal Street Multi Storey Car Park,-3.428789536,56.3940979
1932,The Holybrook Car Park,-0.971312646,51.45364639
1933,Parkway Multi Storey Car Park,0.706602942,52.24619611
1934,Monastery Court Car Park,1.296697855,52.63176708
1935,Pottergate Car Park,1.290954505,52.6300346
1937,Cambridge University NHS Foundation Hospitals Trust - Staff Car Parks,0.140407898,52.20337816
1939,Peartree Park & Ride,-1.28415811,51.79412155
1940,Redbridge Park & Ride and Coach Park,-1.249841238,51.73173193
1941,Seacourt Park & Ride,-1.288680154,51.75368774
1942,Court Road Multi Storey Car Park,-3.263089657,51.40698298
1943,Riverside Entertainment Centre MSCP,1.305978298,52.62558703
1944,Buchanan Galleries Car Park,-4.252465534,55.86297817
1946,Wigan Station,-2.633565356,53.54376029
1947,Crown Yard Car Park,-0.553585165,50.85402161
1948,River Road Car Park,-0.556088242,50.85301839
1949,St Giles Multi Storey Car Park,1.291636491,52.62868455
1950,The Forge Shopping Centre Car Park,-4.199825932,55.8534422
1951,intu Braehead Shopping Centre Blue Car Park,-4.364801,55.875941
1952,Livingston Designer Outlet MSCP,-3.519405,55.882732
1953,Q Park - Waterloo Street MSCP,-4.264576781,55.86045499
1954,The Loreburne Shopping Centre,-3.6101926,55.06715743
1955,Maidenhead - Stafferton Way MSCP,-0.71704,51.518633
1956,Windsor - Victoria Street Car Park,-0.609019,51.479967
1957,Maidenhead - Nicholsons Broadway MSCP,-0.721748,51.521391
1958,Westside Plaza Shopping Centre,-3.284870909,55.91537993
1963,University Hospital Lewisham Car Park,-0.017055918,51.4543288
1971,Oxenholme Station - Short Stay,-2.722794312,54.30590948
1972,Oxenholme Station - Main Car Park,-2.722794312,54.30590948
1973,Balmoral,-3.033581548,53.79123752
1974,The Lace Market MSCP,-1.145743,52.952595
1997,Pierhead Car Park,-1.427676593,54.99519401
1998,South Promenade North Car Park,-1.415721904,55.00036733
2000,Stars Lane Car Park,-2.627534866,50.94012266
2002,Queen Alexandra Hospital - North Car Park,-1.069380519,50.85022789
2004,Leeds Bradford International Airport - Staff car park AA,-1.661531,53.867943
2005,Leeds Bradford International Airport - Long Stay,-1.659478574,53.86903677
2006,Leeds Bradford International Airport - Yorkshire Executive Club,-1.659478574,53.86903677
2007,Leeds Bradford International Airport - Short Stay and Business,-1.659478574,53.86903677
2009,Clacton Factory Outlet - Public Car Park,1.167168617,51.81778136
2010,Purple Parking Southall,-0.399460751,51.50343668
2012,Peoples Market Multi Storey Car Park,-2.992023475,53.04738965
2013,Business Plus - Heathrow Airport,-0.432963,51.4793
2037,Q Park - Queensway,-0.186946966,51.51095491
2040,Q Park - Harley Street,-0.14562009,51.51791651
2046,Direct Parking - Glasgow Airport,-4.458526,55.854428
2048,Sterling Mills Outlet Village,-3.74188903,56.14946629
2052,Borehamwood Shopping Park,-0.277753715,51.65676022
2055,Intu Trafford Centre,-2.348103,53.465504
2058,The Riverside Multi Storey Car Park,-0.970648527,51.45271657
2059,Princess Square Shopping Centre,-0.750604,51.415461
2060,CP Plus - Royal Surrey County Hospital Car Parks,-0.60112,51.240598
2061,Foyleside Car Park,-7.318372973,54.99449851
2062,Bluewater - Yellow Car Park,0.268220901,51.4374905
2064,Lancaster Station - Short Stay/Disabled,-2.808103852,54.04878297
2065,Lancaster Station - Main Car Park,-2.808103852,54.04878297
2066,Balmoral Gardens Car Park,0.548573953,51.38547302
2067,Parkwood Shops Car Park,0.594780873,51.34830295
2068,Jeffery Street Car Park,0.546904892,51.38828841
2069,Littlewoods Car Park,0.546904892,51.38828841
2071,Twydall Green Shops Car Park,0.582589053,51.37487959
2072,Station Road Car Park,0.609815022,51.36416683
2073,Longley Road Car Park,0.607886654,51.36411086
2076,Temple Street Car Park,0.528816857,51.38090077
2077,Civic Car Park,0.539130189,51.37326674
2078,Grove Road Car Park,0.53912,51.373482
2079,Upper Mount Car Park,0.525666,51.379364
2080,Old Road Car Park,0.522438287,51.38068757
2081,The Common Car Park,0.474631,51.3513
2082,Commercial Road Car Park,0.493017527,51.39520383
2083,Acorn Wharf Coach Park,0.506904395,51.39150781
2084,King Street Car Park,0.501555308,51.38937375
2085,Union Street Car Park,0.50476454,51.385231
2086,Kings Head Car Park,0.501555308,51.38937375
2087,Boley Hill Car Park,0.500933799,51.38878444
2088,Cathedral Car Park,0.504094445,51.38980515
2089,Almon Place Car Park,0.503603,51.390376
2090,High Street (No 2) Car Park - Rochester,0.509702,51.384688
2091,Easons Yard Car Park,0.503892709,51.3853216
2092,The Paddock Car Park,0.524759815,51.38108723
2093,James Street Car Park,0.52789516,51.38060589
2094,Rhode Street Car Park,0.52789516,51.38060589
2095,Blue Boar Lane Car Park,0.506698098,51.38773486
2096,Globe Lane Car Park,0.528405666,51.38595515
2097,Town Hall Car Park - Chatham,0.526323969,51.38495679
2098,Whiffens Avenue Car Park,0.526863,51.385297
2100,Queen Street Car Park,0.525248,51.37993
2101,Solomons Road Car Park,0.525624011,51.38373075
2103,Postwick Park & Ride,1.379244395,52.62429975
2104,Willis Car Parks,1.150765781,52.05537735
2105,Royal Preston Hospital Car Park M,-2.704499193,53.79086295
2106,Royal Preston Hospital Car Park L,-2.704499193,53.79086295
2107,Vinci Park The Mayfair Car Park,-0.15474,51.50831
2108,The Riverside Car Park,0.528405666,51.38595515
2112,Empark Long Stay Surface Park Edinburgh Airport,-3.364434005,55.94842803
2113,Intu Victoria Centre - Main Car Park,-1.146267,52.955358
2118,Serpentine Green Shopping Centre,-0.263011561,52.54083563
2119,Mary Road Car Park,-0.578176975,51.23901547
2121,Tunsgate Underground Car Park,-0.572640896,51.23476339
2123,Bowling Centre Car Park,0.150790026,51.45515498
2124,Albion Road Multi Storey Car Park,0.150790026,51.45515498
2126,Stone Place Car Park,-0.242815018,51.37820965
2129,Regent Road Car Park,-2.354052124,53.38684822
2134,Fabian Way Park & Ride,-3.912728241,51.62016137
2135,St Peters Retail Park,-1.25183926,53.11990205
2136,Captain Cook Square Car Park,-1.239060267,54.57510911
2137,Zetland Car Park,-1.237918354,54.57910125
2148,Festival Leisure Park,0.462476703,51.58512764
2150,Ocean Boulevard,-3.053333306,53.79253079
2151,The Broadway Shopping Centre,0.14644814,51.45618785
2153,Castle Court Shopping Centre,-5.934271881,54.60061646
2155,CP Plus - Ashford International Terminal - Multi Storey Car Park,0.87528,51.142557
2157,Southampton International Airport - Long Stay Car Park,-1.357702,50.951456
2161,Harlequin Car Park,-0.392856517,51.65412076
2162,Palace Charter Car Park,-0.392856517,51.65412076
2163,Terminal 1 & 3 Business Parking,-0.461339951,51.47984611
2164,Terminal 4 Business Parking & Long Stay,-0.449169673,51.4550779
2165,Terminal 4 Short Stay Car Park,-0.444847564,51.48144942
2166,Heathrow Terminal 3 MSCP,-0.444847564,51.48144942
2167,Telford Shopping Centre - Red Oak Car Park,-2.446787605,52.67661903
2169,Heathrow Terminal 1 MSCP 1A,-0.444847564,51.48144942
2174,Commercial Street Car Park,-0.706150978,52.38405541
2175,St Peters Way Car Park,-1.015234084,52.20702176
2176,Queensgate Shopping Centre - Perkins (Yellow) Car Park,-0.255014,52.586377
2177,Queensgate Shopping Centre - Cavell (Blue) Car Park,-0.255014,52.586377
2178,Queensgate Shopping Centre - Clare (Green) Car Park,-0.255014,52.586377
2179,Queensgate Shopping Centre - Royce (Red) Car Park,-0.255014,52.586377
2180,Q Park - Surrey Street Car Park,-0.10234512,51.37155836
2181,Hothamton Car Park,-0.677193039,50.78153733
2183,Regis Centre Car Park,-0.675467363,50.78638308
2184,Grassmere Car Park,-0.654809335,50.78991482
2195,Vinci Park Ninewells Hospital - Level 2 MSCP,-2.991368915,56.46165442
2198,The Mall Wood Green West Car Park,-0.111024154,51.59979113
2206,Eastgate Street MSCP,-1.396709962,50.90833167
2207,Grosvenor Square MSCP,-1.424891679,50.91711582
2209,The Highwayman Car Park,-3.361666442,51.39600109
2210,Conway Street Car Park,-3.027074,53.388841
2211,Newcastle International Airport Park & Fly,-1.713422786,55.03481698
2212,Vinci Park University Hospital of Wales Car Park 9,-3.189358705,51.50676262
2216,Chelmsley Wood Shopping Centre Car Park,-1.739711824,52.48032985
2217,The Mall Walthamstow,-0.022393,51.582727
2219,Blackheath Grove Car Park,0.009431059,51.46617106
2223,Oaklands Road Car Park,0.150790026,51.45515498
2224,Doncaster Railway Station Executive Car Park,-1.139204391,53.52189999
2225,On Airport Car Park,-0.986489298,53.48868415
2226,Apcoa Tpe Railways - Ulverston Station Car Park,-3.098357554,54.19117399
2227,Apcoa Tpe Railways - Barrow-in-Furness Station,-3.226003176,54.1187735
2228,Apcoa Tpe Railways - Grange Over Sands Station Car Park,-2.925553064,54.20020244
2229,Apcoa Tpe Railways - Carnforth Station Car Park,-2.771015538,54.12940575
2230,Apcoa Tpe Railways - Windermere Station Car Park,-2.903955882,54.37990585
2232,Apcoa Tpe Railways - Huddersfield Station Car Park,-1.784524492,53.64841392
2234,Apcoa Tpe Railways - Thornaby Station Car Park,-1.30469034,54.55835638
2235,Apcoa Tpe Railways - Thirsk Station Car Park,-1.372560973,54.22819703
2236,Apcoa Tpe Railways - Northallerton Station Car Park,-1.441293253,54.33302452
2237,Apcoa Tpe Railways - Brough Station Car Park,-0.580181649,53.72794048
2238,Apcoa Tpe Railways - Scunthorpe Station Car Park,-0.652941545,53.58649225
2239,Apcoa Tpe Railways - Cleethorpes Station Car Park,-0.029287628,53.56197561
2240,Apcoa Tpe Railways - Scarborough Station Car Park,-0.405360717,54.2798624
2241,Apcoa Tpe Railways - Malton Station Car Park,-0.755547823,54.13686638
2242,Apcoa Tpe Railways - Selby Station Car Park,-1.05950243,53.78156804
2244,The Water Gardens Shopping Centre Harlow,0.094132199,51.76764826
2247,Beach House East Car Park,-0.359319,50.812463
2248,Buckingham Road Multi Storey Car Park,-0.374838,50.810781
2249,Beach House West Car Park,-0.359319,50.812463
2250,Lyndhurst Road West Car Park,-0.359823,50.816087
2251,Lyndhurst Road East Car Park,-0.359823,50.816087
2252,High Street Surface Car Park,-0.367619,50.812892
2258,NCP Montgomery Street Car Park,-5.926368723,54.59721292
2259,NCP North Greenwich London Underground Station Car Park,0.00358186,51.50025537
2260,NCP Ruislip London Underground Station Car Park,-0.421429083,51.57150987
2262,NCP Theatre MSCP Church Street,-0.140192126,50.82342312
2264,RCP Parking Ltd - North Road MSCP,-0.14055,50.825952
2266,Railway Approach Car Park - East Grinstead,-0.01346869,51.12644987
2279,North John Street Car Park,-2.741577,53.453841
2283,Dean Clough,-1.863480806,53.72791552
2284,Official Gatwick Parking -  Short Stay North Terminal Car Park Gatwick,-0.182063,51.153662
2285,Q Park - Liver Street Car Park,-2.985969613,53.39965314
2286,South Street Car Park/Deal,1.403260689,51.22216852
2287,The Quay/Sandwich,1.343130621,51.27516801
2292,"Riverside Car Park, Durham",-1.578772329,54.77629546
2294,Mellor Road Car Park,-2.189582541,53.37409901
2295,Caroline Street Car Park,-2.167954445,53.40098039
2296,Massie Street East Car Park,-2.215326256,53.39410035
2297,Massie Street West Car Park,-2.216166509,53.39373029
2298,Heron Street Car Park,-2.165386873,53.40233276
2299,Derby Way Car Park,-2.066058446,53.39368297
2300,Bramley Close Car Park,-2.161839008,53.35956112
2301,Bramhall Precinct Car Park,-2.166205645,53.35874154
2302,Romiley Precinct Car Park,-2.086024071,53.41376009
2305,Albany Place Car Park,-0.614153938,51.70437373
2306,Catlings Car Park,-0.613860657,51.70497273
2307,Water Meadow Car Park,-0.614184242,51.7029084
2308,Star Yard Car Park,-0.613075029,51.70510733
2309,High Street Car Park - Prestwood,-0.706443994,51.70281855
2310,Blizzards Yard Car Park,-0.569581099,51.63270347
2311,Church Lane Car Park,-0.557039713,51.60899965
2312,Amersham Old Town Car Park,-0.614709368,51.66628131
2313,Chiltern Avenue Car Park,-0.602241305,51.67625857
2314,Sycamore Road Car Park,-0.606809553,51.67774257
2315,Snellswood Car Park,-0.566697483,51.66641552
2316,Civic Centre Car Park,-0.602241305,51.67625857
2317,Link Road Car Park,-0.707452955,51.70448416
2319,Ashdown Road Car Park,-0.302038193,51.40895052
2333,"NCP Union Place Car Park, Worthing",-0.368827836,50.81416349
2334,High Street Multi Storey Car Park,-0.367936,50.813172
2353,Droitwich - Friar Street Car Park,-2.149785,52.269068
2354,Droitwich - High Street Car Park,-2.147546,52.268373
2355,Droitwich - Ricketts Lane Car Park,-2.148358,52.269278
2359,CitiPark Tariff Street Car Park,-2.230430902,53.48155924
2363,Q Park - Musgrove Park Hospital - Dental Car Park,-3.119778237,51.01196677
2365,Q Park - Musgrove Park Hospital - Duchess 2 Car Park,-3.119778237,51.01196677
2366,Q Park - Musgrove Park Hospital - Duchess 1 Car Park,-3.119778237,51.01196677
2367,NCP Drovers Way MSCP,-0.338892199,51.75401952
2368,NCP Russell Avenue MSCP,-0.338892199,51.75401952
2369,Q Park - QEMC - MSCP F,-1.941379,52.451086
2375,Avenue De Chartres Car Park,-0.787747971,50.83491689
2376,South Pallant Car Park,-0.778015759,50.83453659
2377,East Pallant/Cawley Priory Car Park,-0.77576167,50.83438706
2378,Baffins Lane Car Park,-0.776798641,50.83491953
2379,Avenham MSCP,-2.69854511,53.75774864
2381,Broadmark Lane Car Park,-0.505447199,50.80832257
2389,Maritime Car Park,-1.306856303,54.56923434
2396,NCP Leicestershire - Welford Road MSCP,-1.133958,52.630939
2397,NCP Leicester - East Street MSCP,-1.127105,52.631554
2398,NCP leicester - Lee Circle MSCP,-1.129742,52.638657
2399,NCP Leicester - Rutland Centre MSCP,-1.12817,52.635112
2400,Croft Road Car Park,-2.224012613,52.1942647
2401,NCP Leics- Loughborough - The Rushes MSCP,-1.208734,52.773393
2402,Church Lane Car Park,-1.246947011,53.17409493
2403,Robin Hood Line Car Park,-1.197072705,53.14407736
2404,Toothill Lane Car Park,-1.184617137,53.13941713
2405,Toothill Road Car Park,-1.184617137,53.13941713
2406,Grove Street Car Park,-1.212024015,52.93383131
2407,Handley Car Park,-1.212024015,52.93383131
2408,Chippenham Station No 3 Car Park,-2.11598808,51.46198595
2409,Chippenham Station No 2 Car Park,-2.11598808,51.46198595
2410,Chippenham Station No 1 Car Park,-2.11598808,51.46198595
2411,Newton Abbot Station Long Stay Car Park,-3.5996028,50.52999765
2412,Plymouth Station MSCP,-4.142960415,50.37771071
2413,Tiverton Parkway Long Stay Car Park,-3.393697729,50.90158941
2414,Taunton Station Long Stay Car Park,-2.704368241,51.06076551
2415,Station Road Car Park - West Wickham,-0.014328,51.376388
2416,Merrion Centre Car Park,-1.54473549,53.80172148
2422,Hilltown West Car Park,-2.973765135,56.465057
2423,South Tay Street Car Park,-2.977026701,56.4591413
2424,Science Centre West Car Park,-2.976522446,56.45537682
2425,Arts Centre Car Park,-2.974290848,56.45696565
2426,Science Centre East Car Park,-2.975149155,56.4561831
2427,West Bell Street MSCP,-2.976458073,56.46302988
2428,East Port Car Park,-2.969655991,56.46405531
2429,Queen Street Car Park,-2.965310812,56.46423313
2430,Gellatly Street MSCP,-2.966351509,56.46135239
2431,Huntingdon Street Car Park,-1.144917,52.958704
2432,The Minories Flood Street Car Park,-2.082095497,52.50891556
2433,Building 22 Car Park,0.073486052,51.49377012
2434,Building 50 Car Park,0.073486052,51.49377012
2435,Parklands Car Park,-1.081960201,51.26187457
2437,York Road Car Park,-3.973243779,53.25876407
2438,Lansdowne Road Car Park,-3.973243779,53.25876407
2439,Princes Drive Car Park,-3.973243779,53.25876407
2441,Bystock Terrace Car Park,-3.536063433,50.72708378
2442,Richmond Road Car Park,-3.537061214,50.72637746
2443,Parr Street Car Park,-3.520066738,50.72726716
2444,Belmont Road Car Park,-3.520184755,50.72840811
2445,Bartholomew Terrace Car Park,-3.537147045,50.72082838
2446,Matthews Hall Car Park,-3.466293812,50.68446804
2447,Topsham Quay Car Park,-3.464738131,50.68141578
2448,Okehampton Street Car Park,-3.540719748,50.71919817
2449,Haven Banks Car Parks,-3.530654,50.716677
2450,Gordons Place Car Park,-3.503979,50.721069
2453,York Street Car Park,-2.238165611,53.47426327
2457,Howards Grove Car Park,-1.424891679,50.91711582
2458,Marlborough Road North Car Park,-1.424891679,50.91711582
2459,Marlborough Road South Car Park,-1.424891679,50.91711582
2460,Whiston Hospital,-2.788841,53.423446
2462,Civic Centre Staff MSCP,-0.366748039,51.47374209
2463,Barn Road Car Park,1.286103129,52.63207313
2465,Elstow Park & Ride Car Park,-0.477626324,52.11155254
2478,Bakewell Bridge Car Park,-1.671477556,53.21423767
2479,The Royals Shopping Centre Car Park,0.71533075,51.5346856
2490,Peel Street Car Park,-2.116365628,52.5864799
2491,Marks & Spencer Car Park,-1.213731004,54.68378185
2492,Cannon Park Car Park,-1.248048596,54.5750934
2493,Denmark Street Car Park,-1.236162261,54.58530934
2495,Winston Street Car Park,-1.559361219,54.5255585
2500,Kingsend South Long Term Car Park,-0.425147438,51.57122711
2501,Kingsend South Short Term Car Park,-0.423021275,51.57136941
2502,Oaklands Gate Car Park,-0.424930358,51.61256171
2503,Green Lane Car Park,-0.42395,51.611477
2504,Devon Parade Car Park,-0.398249164,51.5778051
2505,Devonshire Lodge Car Park,-0.410893329,51.57031555
2506,Fairfield Road Car Park,-0.471464623,51.51366838
2515,Market Place Car Park,-1.629477809,53.2343819
2527,The Gnoll Road Car Park,-3.634764801,51.74526193
2528,Rosser Street Car Park,-3.946439844,51.62339306
2529,St Marys Car Park,-3.762298371,51.67489702
2530,High Street Car Park,-3.756969216,51.62351343
2531,Burton On Trent - High Street Car Park,-1.628111,52.80458
2532,Nuneaton & Bedworth - Rope Walk Multi Storey Car Park,-1.467839,52.521368
2533,Nuneaton & Bedworth - Harefield Road Multi Storey Car Park,-1.467424,52.523874
2534,Nuneaton & Bedworth - Justice Walk Car Park,-1.46406,52.522616
2536,Choumert Grove Car Park,-0.069797715,51.46894128
2540,Moor Bridge Park & Ride Car Park,-1.189823,53.011642
2541,Wilkinson Street Park & Ride Car Park,-1.177629,52.971763
2542,Hucknall Park & Ride Car Park,-1.198412,53.03799
2544,intu Chapelfield,1.289453,52.62597
2564,The Pennine Centre Car Park,-1.857783794,53.72040587
2567,Cattle Market Car Park,-1.455582325,52.92303382
2574,Grainger Town Car Park,-1.634614702,54.93999689
2589,Old Road Car Park,1.154535441,51.80254694
2590,NCP Summerland Car Park - Exeter,-3.523051472,50.72632071
2591,Park Row Car Park,-0.003489034,51.48385605
2592,Burney Street Car Park,-0.009231878,51.47898963
2593,Magdalen Street Car Park,-3.527834415,50.7200948
2595,Guildhall Car Park,-3.53276968,50.72454369
2597,Bampfylde Street Car Park,-3.524626493,50.72607863
2598,Magdalen Road Car Park,-3.510518,50.721774
2599,Holman Way Car Park,-3.461637497,50.68323764
2600,Matford Park & Ride Car Park,-3.520013094,50.69507804
2601,Triangle Car Park,-3.520517349,50.72547417
2602,APH - Airport - Birmingham Car Park,-1.701095,52.524319
2603,Hamlet Court Road Car Park,0.695399136,51.54124333
2604,Ceylon Road Car Park,0.694355496,51.54188789
2605,Elm Road Car Park,0.782904603,51.53415341
2606,Leigh Foundary Car Park,0.649358505,51.54045792
2607,Shorefield Road Car Park,0.694368082,51.53551097
2608,Western Esplanade Car Park,0.713255186,51.53300683
2609,Fairheads Green Car Park,0.736154761,51.53011824
2610,Shoebury Common (South) Car Park,0.736154761,51.53011824
2611,East Beach Car Park,0.796135449,51.52932361
2612,Tylers Avenue Car Park,0.715696035,51.53742926
2613,Clarence Road Car Park,0.711667075,51.53612846
2614,Tudor Rose UK Ltd trading as Airport Meet & Greet,-0.19101,51.170896
2615,Sandon Park & Ride,0.526624918,51.72118635
2616,Scone Park & Ride,-3.394630438,56.42313188
2617,Broxden Park & Ride,-3.481692216,56.38800495
2618,CMMC Hathersage Road Multi Storey Car Park,-2.22770653,53.4624366
2619,NCP The Brewery MSCP - Cheltenham,-2.07517504,51.90460137
2626,The Broadwalk Centre: Edgware,-0.27691,51.612903
2627,Queens Park Annexe Car Park,-1.432342212,53.23673435
2629,Watford Junction Station Car Park,-0.396592489,51.66377552
2630,Hemel Hempstead Station Car Park,-0.457770958,51.73910339
2631,Berkhamsted Station Car Park,-0.558360815,51.76006432
2632,Tring Station Car Park,-0.622851439,51.80059005
2633,Leighton Buzzard Station Car Park South,-0.663952063,51.90846991
2634,Leighton Buzzard Station Car Park North,-0.663952063,51.90846991
2635,Bletchley Station Car Park,-0.743067494,51.99636094
2636,Angel Way Multi Storey Car Park,0.178754086,51.57796067
2638,Castleton Car Park,-1.775792221,53.34325228
2639,Hope Car Park,-1.747869795,53.34834717
2640,Edale Car Park,-1.829347054,53.36002414
2641,Imperial Retail Park,-2.600361,51.415705
2642,NCP Norwich International Airport - Long Stay Car Park,1.27726892,52.66977106
2643,NCP Norwich International Airport - Short Stay Car Park,1.27726892,52.66977106
2644,Ainsdale Railway Station Car Park,-3.0301824,53.60396868
2645,Aintree Railway Station Car Park,-2.960090152,53.47535409
2646,Birkdale Railway Station Car Park,-3.013482739,53.63427779
2647,Formby Railway Station Car Park,-3.070768107,53.55343617
2648,Brunswick Railway Station Car Park,-2.968090671,53.38990242
2649,Freshfield Railway Station Car Park 1,-3.069838799,53.56626274
2650,Freshfield Railway Station Car Park 2,-3.069838799,53.56626274
2651,Old Roan Railway Station Car Park,-2.952740439,53.4869278
2652,Ormskirk Railway Station Car Park,-2.881145619,53.56877234
2653,Town Green Railway Station Car Park,-2.903809151,53.54175359
2654,Love Lane Car Park,-0.406112464,51.58859503
2655,Chapel Lane Car Park,-0.382913253,51.59390685
2656,Cambridge Road Car Park,-0.363266356,51.58620681
2657,RCP Parking - Bernard Street Car Park,-0.125007517,51.52390165
2658,Meteor Meet & Greet Parking (Gatwick) - Meteor House,-0.16605,51.138289
2659,Fremlin Walk Shopping Centre Car Park,0.518653393,51.27519094
2661,Broadway Square,0.148445978,51.4567358
2664,Bamford Street Car Park,-2.15477407,53.40643638
2665,Edward Street Car Park,-2.15518713,53.40689368
2672,Town Street Car Park,-0.750352628,51.51921031
2674,Chadwick Street Car Park,-2.062608004,53.39365559
2676,Kings Drive Car Park,-2.189266444,53.41806356
2678,Rupert Street Car Park,-2.163305069,53.43607031
2680,Church Road/Woods Lane Car Park,-2.188113928,53.36612996
2683,Hartham Common Car Park,-0.077471331,51.80004903
2684,Hartham Lane Car Park,-0.077471331,51.80004903
2685,Clare Street Car Park,-2.217135429,52.18873341
2686,Providence Street Car Park,-2.216556072,52.19114727
2687,Buxton Road (Medical Centre) Car Park,-2.069950452,53.36445824
2688,Buxton Road (Library) Car Park,-2.070021629,53.36429898
2698,Booth Street West MSCP,-2.233219245,53.46792704
2699,NCP Garratt Lane Car Park,-0.192846431,51.45326802
2700,NCP Berners Street Car Park,-0.137834696,51.51796401
2701,NCP Sanderson Hotel Car Park,-0.137235472,51.5174599
2705,The Mount - Princes Risborough,-0.83127491,51.72249687
2706,Horns Lane - Princes Risborough,-0.831926847,51.71967096
2707,Soar at Intu Braehead,-4.374464,55.878624
2727,APCOA Liverpool Lime St MSCP,-2.975688364,53.408484
2728,APCOA Manchester Piccadilly Station,-2.223441501,53.47631415
2729,York House Private Car Park,-0.190524746,51.50395095
2730,Q Park - Pimlico,-0.147721801,51.4902702
2732,Old Town Rose Street MSCP,-4.225155636,57.4804464
2733,NCP Saffron Hill MSCP,-0.10751313,51.5209678
2738,Capswood Council Office Car Park,-0.527893801,51.57378404
2739,Jetparks Plus,-2.240416,53.370781
2740,Huyton Hey Car Park,-2.835939359,53.41032609
2741,Red Zone Car Park,-2.841082895,53.4110091
2742,Archway Road Short Stay Car Park,-2.842461391,53.41224885
2743,Mill Street Car Park,-2.805142598,53.42936959
2744,Moss Street Long Stay Car Park,-2.80279922,53.4304101
2745,Cyprus Street Car Park,-2.801426524,53.4286485
2747,Webster Drive Car Park,-2.883777618,53.48058112
2748,Kirkby Multi Storey Car Park,-2.886218183,53.48272039
2749,Kirkby Market Car Park,-2.884011413,53.48240415
2750,Irlam Drive Car Park,-2.884011413,53.48240415
2751,Kirkby Suite Car Park,-2.89065556,53.48232785
2752,Purple Zone Car Park,-2.89065556,53.48232785
2754,Blagdon Road MSCP,-0.253844261,51.39992856
2755,Malden Centre Car Park,-0.253254175,51.40026993
2756,Valley Centertainment Car Park,-1.414960145,53.40151755
2757,Kennedy Way Car Park - Yate,-2.415159581,51.53922149
2758,Cecil Road Car Park - Kingswood,-2.509134536,51.460956
2759,Castle Court Car Park - Thornbury,-2.527319771,51.60864493
2760,Byron Place Car Park - Staplehill,-2.511878955,51.48110361
2761,Bank Road Car Park - Kingswood,-2.506640604,51.46191994
2762,Meridian Leisure Park Car Park,-1.171453741,52.61202089
2763,Ravenside Retail & Leisure Park,0.501019857,50.84385091
2764,Hale Street Car Park,-0.809885063,51.81750413
2772,NCP Arriva Wales Llandudno Junction Car Park,-3.809067599,53.28421302
2773,NCP Arriva Wales Wrexham General Car Park,-3.003216044,53.05014552
2775,"NCP Park West Garage Car Park, London",-0.16499289,51.51574825
2776,NCP Arthur Court Car Park London,-0.18896037,51.5161478
2781,East Sussex Healthcare NHS Trust - Conquest Hospital,0.567770004,50.88457159
2782,NCP Farringdon MSCP,-0.106956,51.524796
2783,NCP Portland Place Car Park,-0.145576214,51.52041578
2786,NCP St Martins Lane Hotel Car Park,-0.12587321,51.51159548
2789,Arragon Road MSCP,-0.325554113,51.44730737
2790,Middleton Archer Car Park,-2.20286,53.54835
2793,Paradise Road MSCP,-0.301528196,51.45990204
2794,Cophall Parking Gatwick Limited,-0.102214,51.149619
2795,NCP The Ebbisham Centre Car Park,-0.267032,51.334239
2798,London Southend Airport - Short Stay Car Park,0.69907086,51.56769065
2808,Lincoln College Car Park,-0.532122947,53.23093518
2809,Westgate 2 Car Park,-0.541434368,53.2360029
2810,City Hall (Orchard Street) Car Park,-0.544838705,53.23105516
2811,County Hall Car Park,-0.545631569,53.23153231
2812,Flaxengate Car Park,-0.538227332,53.23030002
2813,St Marks Shopping Surface Car Parks,-0.545274,53.225513
2814,Orchards Car Park - Haywards Heath,-0.102610588,50.99849743
2815,Hazelgrove Road Car Park - Haywards Heath,-0.101189,50.997505
2816,Ayr Central Car Park,-4.627160529,55.45985946
2817,Q Park Jamaica Street MSCP Car Park,-4.245605,55.858585
2819,Orsett Hospital Car Park,0.365852426,51.51003441
2820,NCP Arriva Wales Bangor Car Park,-3.003216044,53.05014552
2821,NCP Arriva Wales Colwyn Bay Car Park,-3.725602755,53.29657091
2826,NCP Blackfriars Car Park - Gloucester,-2.24571825,51.8668851
2827,Eastgate MSCP - Gloucester,-2.245786523,51.86342338
2829,Westgate Street Car Park - Gloucester,-2.250323161,51.86706421
2831,NCP (WM) Birmingham Airport MSCP 2,-1.731644,52.452527
2832,NCP (WM) Birmingham Airport MSCP 1,-1.731644,52.452527
2833,NCP (WM) Birmingham Airport -Free Port Car Park,-1.731644,52.452527
2834,NCP (WM) Birmingham Airport - Long Stay 2 Car Park,-1.731644,52.452527
2835,NCP Arriva Trains Port Talbot Station Car Park,-3.743102705,51.54023409
2836,NCP Arriva Trains Bridgend Station Car Park,-3.575822907,51.50636121
2837,NCP Arriva Trains Neath Station Car Park,-3.806534832,51.66235484
2838,NCP Arriva Trains Swansea Station Disabled Car Park,-3.936562355,51.62553482
2839,NCP Arriva Trains Tenby Station Car Park,-4.7060116,51.67238892
2840,NCP Arriva Trains Swansea Station Car Park,-3.940910706,51.62518422
2841,NCP Arriva Trains Carmarthen Station Car Park,-4.302687,51.855735
2843,Datchet - The Avenue Car Park,-0.579462,51.482257
2844,London Road Park & Ride,-1.781600195,51.08181035
2845,Grafton Multi Storey Car Park,-0.374196,50.80948
2846,Marine Crescent Car Park,-0.374528,50.80903
2847,Brooklands Brighton Road West Car Park,-0.340879,50.815767
2848,Brooklands Brighton Road East Car Park,-0.340879,50.815767
2849,Brooklands Western Road Car Park,-0.37849,50.809103
2850,Poulters Lane Car Park,-0.381989,50.830465
2851,Tudor Buildings Car Park,-0.392087,50.830733
2852,Coombe Rise Car Park,-0.393796,50.847879
2853,Storrington Rise Car Park,-0.398786,50.857091
2854,West Hill Car Park,-0.409257,50.852374
2855,Honeysuckle Lane Car Park,-0.413449,50.852273
2857,Bost Hill Car Park,-0.404962,50.853838
2858,Sea Lane Cafe Car Park,-0.418938,50.805927
2860,Elm Grove Car Park,-0.400715,50.814485
2861,Durrington Station Car Park,-0.411451,50.819303
2862,Queen Street Car Park,-0.378127,50.824263
2863,Brooklyn Avenue Car Park,-0.401138,50.81185
2866,Hunters Bridge Multi Storey Car Park,-0.2038908,51.80281667
2868,Market (South Street) Car Park,-2.634100914,50.94036604
2869,NCP (BTP) Arriva Trains Hereford Station Car Park,-2.708485,52.0606
2870,NCP (BTP) Arriva Trains Ludlow Station Car Park,-2.71762,52.371263
2871,NCP (BTP)Arriva Trains Shrewsbury Station Howard Street Car Park,-2.749365,52.71224
2872,NCP (BTP)Arriva Trains Shrewsbury Station Front Car Park,-2.749955,52.712943
2874,The Quadrant MSCP,-3.944775324,51.6185916
2875,Belgrade Plaza Car Park,-1.516682,52.409896
2881,Pershore High Street Short Stay Pay and Display car park,-2.075934,52.112028
2882,Evesham - The Leys Short Stay Car Park,-1.937917,52.090544
2922,Frenchgate MSCP,-1.13701238,53.52288195
2923,Park Place East Car Park,-1.54848218,54.52358469
2924,NCP C2C Rail Thorpe Bay Station Car Park,0.764121,51.536786
2925,NCP C2C Rail Westcliff Station Car Park,0.692689,51.536908
2932,NCP Park Towers Hotel Car Park,-0.158840552,51.50175814
2936,Springkerse Park & Ride Car Park,-3.907184601,56.11494768
2939,NCP (WAR) Stratford Upon Avon- Rother Street MSCP,-1.710216,52.192833
2940,NCP Vintry Thames Exchange,-0.092871412,51.51018213
2941,Vinci Park Broadgreen Hospital MSCP,-2.897984004,53.4111521
2943,Kettering General Hospital Car Parks A & B,-0.7422775,52.40695839
2949,NCP York Stonebow,-1.078079872,53.95925092
2950,NCP Wellington Place Leeds,-1.557383231,53.79597142
2953,Apcoa Tpe Railways - Hull Station Car Park,-1.784524492,53.64841392
2955,NCP The Markets Leeds,-1.537675489,53.79616672
2961,Belair Airport Parking,-1.70428,55.0282
2962,Great Egerton Street Car Park,-2.161431313,53.41216027
2980,Royal Brompton Hospital Car Park,-0.167054565,51.48988158
2981,NCP Bowers Way West Car Park Harpenden,-0.355464781,51.81786255
2982,NCP Verulamium Car Park - St Albans,-0.35517029,51.75301657
2983,NCP Townsend Avenue Car Park - St Albans,-0.33354834,51.75749576
2984,NCP London Road/Keyfield Terrace Car Park - St Albans,-0.335162262,51.7482837
2985,NCP London Road/Hart Road Car Park - St Albans,-0.338100696,51.75032155
2986,NCP Gombards Car Park - St Albans,-0.341074226,51.75417624
2987,NCP Bricket Road Car Park - St. Albans,-0.334462802,51.75312056
2988,NCP Adelaide Street Car Park - St Albans,-0.337057114,51.75464521
2989,NCP Amenbury Lane Car Park - Harpenden,-0.356209819,51.81373663
2990,NCP Bowers Way East Car Park - Harpenden,-0.353770693,51.81617532
2996,Nuneaton & Bedworth - Abbey Street Car Park,-1.469757,52.523663
2997,Nuneaton & Bedworth - Spitalfields Car Park 2,-1.471622,52.478928
2998,Nuneaton & Bedworth - Spitalfields Car Park 1,-1.471622,52.478928
3001,NCP (WM) Birmingham - Albert Street Basement Car Park,-1.893606,52.480805
3007,NCP Penny Street Car Park,-2.479454,53.749315
3011,Prospect Shopping Centre MSCP,-0.344138145,53.74508172
3012,Kingston Retail Park,-0.345334573,53.73904953
3013,Q Park Co-op Stowell Street Car Park,-1.620264304,54.97203463
3014,Meadowlane Shopping Centre Car Park,-6.612021,54.752604
3015,Royal Hospital - Main Visitors Car Park,-5.954024381,54.59424277
3016,Royal Hospital - Childrens Visitors Car Park,-5.954024381,54.59424277
3019,Hanns Way Car Park,-1.354483366,50.96763686
3020,NCP Crasswell Street MSCP - Portsmouth,-1.084540948,50.79998743
3022,NCP Market Way Car Park - Portsmouth,-1.088160266,50.80359497
3023,NCP Crasswell Street Car Park - Portsmouth,-1.084540948,50.79998743
3024,NCP Cascades MSCP - Portsmouth,-1.092012707,50.80106203
3025,West Quay Retail Park,-1.41004655,50.90420924
3026,NCP High Street Car Park - Weston Super Mare,-2.978477,51.346644
3028,Q Park - Musgrove Park Hospital - Cedars MSCP,-3.119778237,51.01196677
3029,Pimlico Market Place Car Park,-1.31075786,52.98429227
3030,Club Row Car Park,-1.322383259,52.97338284
3031,South Street Car Park,-1.322383259,52.97338284
3032,Beaconsfield Street Car Park,-1.283647182,52.90054643
3033,Lawrence Street Car Park,-1.286286071,52.90461666
3034,Long Eaton Railway Station Car Park,-1.283647182,52.90054643
3035,Southern - Worthing Station Car Park,-0.37609903,50.81816809
3036,Southern - Hove Station Car Park,-0.171232224,50.83489702
3037,Southern - Brighton Station Car Park,-0.140639067,50.82897033
3038,Southern - Hassocks Station Car Park,-0.145994724,50.9245403
3039,Southern - Balcombe Station Car Park,-0.136883999,51.05557329
3040,Southern - Crowborough Station Car Park,0.185644015,51.04613574
3044,Stoneleigh Road Car Park,-0.071953837,51.59799568
3045,Southern - Woldingham Station Car Park,-0.05191489,51.29026072
3046,Southern - Lingfield Station Car Park,-0.007705199,51.17567129
3047,Southern - Merstham (Main) Station Car Park,-0.151036595,51.26488029
3048,Southern - Cheam Station Car Park,-0.212497798,51.35508059
3049,Southern - Ashtead Station Car Park,-0.306760313,51.3176235
3050,Southern - Merstham Station (Season Ticket Holders) Car Park,-0.151036595,51.26488029
3051,Weston Favell Centre North Car Park,-0.836666822,52.25793342
3053,Weston Favell Centre Undercover Car Park,-0.83493948,52.25587783
3055,Weston Favell Centre Roof Top Car Park,-0.835379362,52.25545751
3056,Olympia Car Park,-4.181992787,55.75986691
3057,Princes Mall Car Park,-4.182776213,55.76056119
3058,NCP Whitgift Centre MSCP,-0.100004001,51.37570212
3059,NCP Croydon Central MSCP,-0.095954,51.377764
3061,NCP Great Eastern Street Car Park,-0.080120116,51.5238229
3067,Bedford Road MSCP,-0.577640533,51.23790043
3068,"Thornbrook Road Car Park, Chapel-En-Le-Frith",-1.911939964,53.32599204
3069,Market Place/Sainsburys Car Park,-1.913757,53.256289
3070,Municipal Buildings Car Park,-1.951853502,53.44038792
3071,"Market Place Car Park, Buxton",-1.913757,53.256289
3072,"Market Street Car Park, Buxton",-1.913537,53.255338
3091,Riverside,-0.473340505,51.74770525
3093,Silk Street Car Park,-2.024241352,53.10753492
3094,NCP Spinningfields Car Park,-2.254409596,53.47971287
3095,NCP Printworks Car Park,-2.239716229,53.48474093
3096,NCP Chester Street Car Park,-2.24184369,53.4719458
3098,NCP Middleburg Square MSCP,1.176133,51.079274
3100,NCP County Square MSCP,0.869100537,51.14851086
3101,NCP (WM) Wolverhampton - Wulfrun Centre Car Park,-2.125454,52.583524
3102,Mildmay Road Car Park,0.0755,51.557066
3105,Beeston Station Car Park,-1.208324432,52.92072831
3106,Alfreton Station Car Park,-1.369986534,53.1005307
3107,Melton Mowbray Station Car Park,-0.885858536,52.76078822
3108,Loughborough Station Car Park,-1.196908951,52.77893745
3109,Hoylake Railway Station Car Park,-3.179719751,53.38970674
3110,Meols Railway Station Car Park,-3.155212177,53.39926828
3111,Wallasey Grove Road Railway Station,-3.06881486,53.4279124
3112,Bromborough Railway Station Car Park,-2.988574319,53.32056271
3113,Eastham Rake Railway Station,-2.981694012,53.30597603
3114,Hunts Cross Railway Station,-2.855930628,53.35998061
3115,Grassington Road Car Park,0.098542216,51.44081391
3116,Grassington Basement Car Park,0.098542216,51.44081391
3117,Albany Park Railway Station Car Park,0.125649424,51.4360896
3118,Bexley High Street Car Park,0.149148484,51.44135365
3120,empark UK Ltd - Mid Stay Car Park - Stansted Airport,0.252079491,51.87716406
3121,"empark UK Ltd - Short Stay (Red,Orange & Green) Car Park - Stansted Airport",0.261743477,51.88993712
3122,empark UK Ltd - Meet and Greet Car Park - Stansted Airport,0.261741,51.889939
3123,empark UK Ltd - Jet Parks Car Park,0.214471,51.880712
3133,NCP Arriva Trains Abergavenny Station Front Car Park,-3.009401,51.816722
3134,NCP Arriva Trains Abergavenny Station Side Car Park,-3.009401,51.816722
3135,NCP Arriva Trains Severn Tunnel Junction Station Car Park,-2.783648,51.586379
3136,NCP Arriva Trains Newport Station Short Stay Car Park,-2.998585,51.589087
3137,NCP Arriva Trains Newport Station Main Car Park,-2.998585,51.589087
3138,West Street MSCP,-0.662066696,51.91761092
3141,Swimming Pool Car Park,-1.980902475,50.71796625
3142,Sandbanks Car Park,-1.946392381,50.68357568
3144,Orchard Shoppers Car Park,-3.101197,51.013705
3148,NCP Parkside - Crawley,-0.185349358,51.11525968
3149,NCP Boulevard East - Crawley,-0.187100148,51.11615919
3150,NCP Boulevard West - Crawley,-0.187100148,51.11615919
3151,NCP Crosskeys - Crawley,-0.188632113,51.11461812
3152,NCP Kilnmead - Crawley,-0.15892998,51.11779637
3153,Station Approach Car Park,0.010020733,51.37670957
3154,High Street Car Park - West Wickham,-0.019698143,51.3759662
3155,Civic Centre Car Park,0.021028,51.40381
3156,The Hill Car Park,0.011018515,51.40645427
3157,Drake Circus Shopping Centre,-4.138723612,50.3729282
3158,Guildhall/Sandwich,1.338563161,51.27428201
3159,Borrow Pit/Walmer,1.402045296,51.20433883
3160,Walmer Castle/Walmer,1.402045296,51.20433883
3161,Council Offices Upper Staff/Whitfield,1.282079819,51.17214742
3162,Council Offices Main Staff & Visitors/Whitfield,1.282079819,51.17214742
3163,Townwall Street/Dover,1.318943643,51.12578745
3164,Woolcomber Street/Dover,1.318943643,51.12578745
3166,NCP Arriva Trains Chester Station East Car Park,-2.881224812,53.19688473
3167,Palace Exchange Car Park,-0.081783414,51.65150991
3169,APCOA Edinburgh Waverley Station Long Stay Car Park,-3.182531,55.951565
3170,Granby Street Car Park,-1.196656422,52.77770129
3172,"Hereford County Hospital Visitor 1-3, A&E and Staff 2 Car Parks",-2.70714,52.056629
3173,FForest Fach/Carmarthan Road Park and Ride Car Park,-3.948351515,51.61372121
3174,Parkway Business Centre Car Park,-2.245301178,53.44711203
3178,Trinity Street Car Park,-0.245267377,52.57162022
3179,Riverside Car Park,-0.238616844,52.56855439
3180,Summerland Gardens Car Park,-0.144722997,51.59456448
3181,Crouch Hall Road Car Park,-0.117563529,51.58412317
3182,Westerfield Road Car Park,-0.081032517,51.58266813
3183,Durham Tees Valley Airport Car Park,-1.433587509,54.51193561
3190,The Centre Car Park 2,-3.513404,55.883229
3191,Shaftesbury Road Car Park,0.026982912,51.54735355
3192,Stratford Multi Storey Car Park,-0.001599,51.542309
3193,Tamworth Station Car Park,-1.723039443,52.64495366
3194,Burton-on-Trent Station Forecourt Car Park,-1.642413139,52.80638058
3195,Lichfield City Station METEOR Car Park,-1.823066121,52.68226442
3196,Lichfield Trent Valley Station Car Park,-1.826584863,52.6827281
3197,Burton-on-Trent Main Car Park,-1.640138626,52.80616007
3198,Bramsche Square Car Park,-2.096790075,53.71394257
3199,Union Street South Car Park,-1.857494116,53.71925042
3200,Bethel Street Car Park,-1.779892445,53.70059379
3201,Bull Green Car Park,-1.863491535,53.72149781
3202,Commercial Street Car Park,-1.784044504,53.70209907
3203,Coronation Street Car Park,-1.837892532,53.68559517
3204,Dalton Street Car Park,-2.0989573,53.71192338
3205,Mulcture Hall Road Car Park,-1.853481531,53.72444969
3206,King Street Car Park,-1.854200363,53.72363715
3207,North Bridge Car Park,-1.858974695,53.72742042
3208,New Road Car Park,-2.010905743,53.74011979
